FIPS,County,State,Latitude,Longitude,confirm_5,confirm_10,confirm_20,confirm_50,confirm_current,death_5,death_10,death_20,death_50,death_current,Population,Population Density,Median Household Income,Poverty Rate
01001,Autauga,Alabama,32.53952745,-86.64408227,6.0,10.0,19.0,,24,0.0,0.0,1.0,,1,55049.0,93.534505205,53099.0,12.165525259314428
01003,Baldwin,Alabama,30.72774991,-87.72207058,1.0,4.0,28.0,,91,0.0,0.0,1.0,,2,199510.0,137.13854588,51365.0,12.806876848278282
01005,Barbour,Alabama,31.868263,-85.3871286,3.0,10.0,,,12,0.0,0.0,,,0,26614.0,28.114059594,33956.0,23.427519350717667
01007,Bibb,Alabama,32.99642064,-87.12511459999997,4.0,9.0,,,18,0.0,0.0,,,0,22572.0,35.986168859,39776.0,15.018607123870282
01009,Blount,Alabama,33.98210918,-86.56790593,5.0,9.0,14.0,,17,0.0,0.0,0.0,,0,57704.0,89.697955279,46212.0,16.361084153611536
01011,Bullock,Alabama,32.10030533,-85.71265535,3.0,2.0,8.0,,8,0.0,0.0,0.0,,0,10552.0,16.277951234,29335.0,25.85291887793783
01013,Butler,Alabama,31.75300095,-86.68057478,1.0,1.0,8.0,,9,0.0,0.0,0.0,,0,20280.0,25.333449178,34315.0,25.276134122287967
01015,Calhoun,Alabama,33.77483727,-85.82630386,1.0,3.0,34.0,,62,0.0,0.0,0.0,,0,115883.0,188.61714004,41954.0,19.10116237929636
01017,Chambers,Alabama,32.91360079,-85.39072749,2.0,17.0,101.0,,221,0.0,0.0,8.0,,10,34018.0,56.347975948,36027.0,20.004115468281498
01019,Cherokee,Alabama,34.17805983,-85.60638968,2.0,5.0,9.0,,9,0.0,0.0,0.0,,0,25897.0,47.029485799,38925.0,16.171757346410782
01021,Chilton,Alabama,32.85044126,-86.7173256,7.0,15.0,33.0,,35,0.0,0.0,0.0,,0,43817.0,63.726498241,42594.0,20.035602619987674
01023,Choctaw,Alabama,32.02227341,-88.26564429999998,2.0,4.0,12.0,,12,0.0,0.0,0.0,,0,13287.0,14.057424215,32622.0,20.644238729585307
01025,Clarke,Alabama,31.68099859,-87.83548597,9.0,15.0,,,21,0.0,0.0,,,0,24847.0,19.314926487,32735.0,24.24035094780054
01027,Clay,Alabama,33.26984193,-85.85836077,2.0,8.0,14.0,,14,0.0,0.0,0.0,,0,13483.0,21.979894753,38815.0,16.27975969739672
01029,Cleburne,Alabama,33.67679204,-85.52005899,5.0,7.0,12.0,,12,0.0,0.0,0.0,,0,14991.0,26.757506743,36316.0,19.271562937762656
01031,Coffee,Alabama,31.39932826,-85.98901039,0.0,7.0,36.0,,40,0.0,0.0,0.0,,0,50991.0,76.45075182,47872.0,16.118530721107646
01033,Colbert,Alabama,34.69847452,-87.80168544,2.0,5.0,10.0,,11,0.0,0.0,1.0,,1,54377.0,92.387121174,43786.0,16.385604207661327
01035,Conecuh,Alabama,31.43401703,-86.99320044,2.0,3.0,,,5,0.0,0.0,,,0,12697.0,14.440131364,27609.0,32.346223517366305
01037,Coosa,Alabama,32.93690146,-86.24847739,3.0,6.0,18.0,,19,0.0,0.0,1.0,,1,10864.0,16.461552335,31910.0,14.81958762886598
01039,Covington,Alabama,31.2477854,-86.45050893,2.0,4.0,17.0,,17,0.0,0.0,0.0,,0,37729.0,35.889346469,37313.0,18.635532349121366
01041,Crenshaw,Alabama,31.72941803,-86.31593104,1.0,2.0,3.0,,3,0.0,0.0,0.0,,0,13896.0,22.704543937,37557.0,17.875647668393782
01043,Cullman,Alabama,34.13020303,-86.86888037,4.0,8.0,22.0,,40,0.0,0.0,1.0,,1,81316.0,113.56042387,39297.0,16.869988686113434
01045,Dale,Alabama,31.43037123,-85.61095742,4.0,6.0,,,12,0.0,0.0,,,0,49607.0,87.249907296,44093.0,19.950813393271112
01047,Dallas,Alabama,32.32688101,-87.10866709999998,2.0,7.0,14.0,,18,0.0,0.0,0.0,,2,41426.0,39.142243533,28136.0,33.86037754067494
01049,DeKalb,Alabama,34.45946862,-85.80782906,4.0,13.0,29.0,,29,0.0,0.0,0.0,,0,70937.0,91.86091024,38248.0,19.55538012602732
01051,Elmore,Alabama,32.59785413,-86.14415284,4.0,6.0,17.0,,47,0.0,0.0,0.0,,0,80957.0,132.40756612,53398.0,13.455291080450115
01053,Escambia,Alabama,31.1256789,-87.15918694,1.0,3.0,,,9,0.0,0.0,,,0,37875.0,38.877615797,32334.0,23.48250825082508
01055,Etowah,Alabama,34.04567266,-86.04051873,6.0,26.0,78.0,,78,0.0,3.0,7.0,,7,103363.0,191.48976814,40478.0,18.10415719357991
01057,Fayette,Alabama,33.72076938,-87.73886638,1.0,1.0,,,4,0.0,0.0,,,0,16783.0,26.180382896,36205.0,17.058928677828757
01059,Franklin,Alabama,34.44235334,-87.84289505,3.0,3.0,8.0,,14,0.0,0.0,0.0,,1,31573.0,49.474811238,36138.0,22.01564628004941
01061,Geneva,Alabama,31.09389027,-85.83572839,1.0,,,,2,0.0,,,,0,26765.0,45.804859964,36519.0,22.45843452269755
01063,Greene,Alabama,32.85504247,-87.95684022,3.0,6.0,18.0,,18,0.0,0.0,0.0,,0,8587.0,12.724429805,21339.0,37.6499359496914
01065,Hale,Alabama,32.76039258,-87.63284988,3.0,7.0,,,18,0.0,0.0,,,0,15159.0,22.867078756,33351.0,25.45022758757174
01067,Henry,Alabama,31.51148016,-85.24267944,4.0,11.0,,,14,0.0,0.0,,,0,17187.0,30.634605793,41045.0,15.046255891080468
01069,Houston,Alabama,31.15197924,-85.29939599,3.0,8.0,37.0,,54,0.0,0.0,1.0,,2,103891.0,180.59586101,41945.0,18.687855540903445
01071,Jackson,Alabama,34.78144169,-85.99750489,2.0,5.0,19.0,,31,0.0,1.0,1.0,,2,52608.0,47.99314624,38422.0,18.590328467153284
01073,Jefferson,Alabama,33.55554728,-86.89506300000002,21.0,71.0,292.0,,625,0.0,0.0,4.0,,17,659096.0,593.22554444,47220.0,17.7136562807239
01075,Lamar,Alabama,33.77995024,-88.09668032,1.0,1.0,5.0,,7,0.0,0.0,0.0,,0,14066.0,22.888459751,34298.0,23.617233044220104
01077,Lauderdale,Alabama,34.90171875,-87.65624729,3.0,12.0,18.0,,22,0.0,1.0,2.0,,4,92641.0,138.30116642,43657.0,17.851707127513738
01079,Lawrence,Alabama,34.52041498,-87.31069453,3.0,4.0,8.0,,8,0.0,0.0,0.0,,0,33433.0,47.716440562,42339.0,18.095893279095506
01081,Lee,Alabama,32.60154883,-85.35132246,11.0,40.0,102.0,,269,0.0,0.0,3.0,,12,153947.0,269.83922055,45056.0,22.140736747062302
01083,Limestone,Alabama,34.81185586,-86.98310072,1.0,1.0,25.0,,37,0.0,0.0,0.0,,0,90257.0,171.75295058,51115.0,13.616672391061082
01085,Lowndes,Alabama,32.1597283,-86.65158371,1.0,3.0,19.0,,20,0.0,0.0,0.0,,0,10565.0,13.931895758,27914.0,28.442972077614765
01087,Macon,Alabama,32.38759944,-85.69267724,3.0,6.0,,,19,0.0,1.0,,,2,19684.0,30.286086556,32390.0,22.566551513919936
01089,Madison,Alabama,34.76327133,-86.55069633,1.0,21.0,114.0,,191,0.0,0.0,1.0,,3,349973.0,457.24378797,60150.0,12.94014109659888
01091,Marengo,Alabama,32.24767634,-87.78796182,5.0,8.0,23.0,,23,0.0,0.0,1.0,,1,20066.0,19.516985844,30713.0,27.42948270706668
01093,Marion,Alabama,34.13697363,-87.88704173,3.0,10.0,33.0,,58,0.0,0.0,3.0,,4,30239.0,40.093386582,34074.0,18.21819504613248
01095,Marshall,Alabama,34.36975964,-86.30486727,5.0,16.0,102.0,,106,0.0,0.0,2.0,,2,94534.0,169.85038912,39831.0,20.244568091903442
01097,Mobile,Alabama,30.78472347,-88.20842409,2.0,29.0,201.0,,548,0.0,1.0,8.0,,17,414291.0,336.56024397,44263.0,18.980137149974293
01099,Monroe,Alabama,31.56729412,-87.36995001,1.0,5.0,,,7,0.0,0.0,,,1,21975.0,20.539770507,28182.0,31.726962457337883
01101,Montgomery,Alabama,32.2206831,-86.20969272,2.0,3.0,35.0,,174,0.0,0.0,1.0,,5,227392.0,287.48618084,45358.0,20.66123698283141
01103,Morgan,Alabama,34.45500589,-86.85475946,15.0,21.0,38.0,,42,0.0,0.0,0.0,,0,119555.0,205.54206837,46883.0,16.03613399690519
01105,Perry,Alabama,32.64048341,-87.29770589,1.0,7.0,,,7,0.0,0.0,,,0,9856.0,12.700510989,24912.0,36.57670454545455
01107,Pickens,Alabama,33.28094866,-88.08818103,2.0,10.0,23.0,,26,0.0,0.0,0.0,,0,20042.0,22.620053507,31679.0,22.82706316734857
01109,Pike,Alabama,31.80396383,-85.9408295,4.0,10.0,21.0,,24,0.0,0.0,0.0,,0,33277.0,49.605114793,33193.0,24.263004477567087
01111,Randolph,Alabama,33.29526734,-85.45708831,2.0,11.0,45.0,,45,0.0,1.0,4.0,,4,22615.0,39.143956864,37496.0,20.08401503426929
01113,Russell,Alabama,32.28725256,-85.18415324,1.0,4.0,27.0,,30,0.0,0.0,0.0,,0,58636.0,90.12050714,38400.0,21.186643017941197
01115,St. Clair,Alabama,33.71902176,-86.31029372,1.0,6.0,26.0,,47,0.0,0.0,0.0,,0,86576.0,140.420421,54042.0,13.377841434115691
01117,Shelby,Alabama,33.26879845,-86.66232561,10.0,42.0,124.0,,237,0.0,0.0,5.0,,7,205951.0,274.65465157,72310.0,8.364610999703814
01119,Sumter,Alabama,32.59117397,-88.19916205,6.0,17.0,,,28,0.0,0.0,,,0,13285.0,14.041416952,20428.0,34.49002634550244
01121,Talladega,Alabama,33.37823223,-86.16886178,1.0,4.0,20.0,,38,0.0,0.0,0.0,,1,81057.0,108.34681527,37923.0,19.886006143824716
01123,Tallapoosa,Alabama,32.86698258,-85.79833053,4.0,13.0,61.0,,127,0.0,1.0,4.0,,7,40958.0,56.518866946,39395.0,23.02602666145808
01125,Tuscaloosa,Alabama,33.28726072,-87.52556818,3.0,9.0,34.0,,128,0.0,0.0,0.0,,0,202471.0,158.16297204,48022.0,17.024660321725086
01127,Walker,Alabama,33.80270512,-87.30027177,3.0,28.0,63.0,,84,0.0,0.0,0.0,,0,65593.0,80.544660834,37025.0,21.60901315689174
01129,Washington,Alabama,31.4092794,-88.20689944,1.0,4.0,7.0,,12,0.0,0.0,1.0,,1,16909.0,15.161923997,40293.0,21.20172689100479
01131,Wilcox,Alabama,31.98773215,-87.30891118,2.0,6.0,31.0,,34,0.0,0.0,0.0,,0,11119.0,11.961279617,24442.0,33.88793956291033
01133,Winston,Alabama,34.15030532,-87.37325922,2.0,3.0,4.0,,4,0.0,0.0,0.0,,0,24013.0,38.59836973,33896.0,20.126598092699787
02013,Aleutians East,Alaska,55.32222414,-161.9722021,,,,,0,,,,,0,3299.0,0.5032159254,65926.0,15.459230069718096
02016,Aleutians West,Alaska,52.72541116,-110.4086433,,,,,0,,,,,0,5714.0,1.3030185169,86964.0,7.455372768638432
02020,Anchorage,Alaska,61.14998174,-149.14269860000005,2.0,13.0,67.0,,139,0.0,0.0,1.0,,4,299321.0,170.84945945,80862.0,7.901884598808637
02050,Bethel,Alaska,60.90980451,-159.8561831,1.0,,,,1,0.0,,,,0,17885.0,0.4483488712,53296.0,25.826111266424377
02060,Bristol Bay,Alaska,58.74513976,-156.701064,,,,,0,,,,,0,942.0,1.81957526,88000.0,7.112526539278131
02068,Denali,Alaska,63.67264044,-150.0076108,,,,,0,,,,,0,2125.0,0.162934745,81302.0,10.964705882352941
02070,Dillingham,Alaska,59.79603738,-158.23819419999995,,,,,0,,,,,0,4980.0,0.2727565085,56055.0,16.365461847389557
02090,Fairbanks North Star,Alaska,64.80726247,-146.5692662,6.0,11.0,53.0,,79,0.0,0.0,0.0,,1,100150.0,13.503070244,73831.0,7.432850723914129
02100,Haines,Alaska,59.09893571,-135.4679843,,,,,0,,,,,0,2528.0,1.0574495864,53125.0,5.2215189873417724
02105,Hoonah-Angoon,Alaska,58.29307365,-135.64244240000002,,,,,0,,,,,0,2107.0,0.3280653871,54091.0,12.339819648789748
02110,Juneau,Alaska,58.45031811,-134.200436,3.0,9.0,15.0,,21,0.0,0.0,0.0,,0,32524.0,11.876709455,87436.0,7.271553314475464
02122,Kenai Peninsula,Alaska,60.24429722,-151.53888840000005,4.0,7.0,15.0,,16,0.0,0.0,0.0,,0,57637.0,3.6529901494,64891.0,10.713604108471989
02130,Ketchikan Gateway,Alaska,55.57445008,-130.975561,6.0,12.0,14.0,,15,0.0,0.0,0.0,,0,13715.0,2.865629577,64162.0,10.594239883339409
02150,Kodiak Island,Alaska,57.65529415,-153.7493579,,,,,0,,,,,0,13918.0,2.0172729248,73068.0,8.959620635148728
02158,Kusilvak,Alaska,62.15429159999999,-163.39678830000003,,,,,0,,,,,0,7993.0,0.4862974641,38160.0,35.80633053922182
02164,Lake and Peninsula,Alaska,58.62403337,-156.21405890000003,,,,,0,,,,,0,1411.0,0.0664089117,43864.0,18.6392629340893
02170,Matanuska-Susitna,Alaska,62.31305045,-149.5741743,3.0,4.0,,,15,0.0,0.0,,,0,98679.0,4.3542490487,73908.0,9.475166955481916
02180,Nome,Alaska,64.90320724,-164.0353804,,,,,1,,,,,0,9879.0,0.4356614048,51563.0,26.24759591051726
02185,North Slope,Alaska,69.31479216,-153.4836093,,,,,0,,,,,0,9681.0,0.1111406362,72027.0,11.05257721309782
02188,Northwest Arctic,Alaska,67.04919196,-159.7503946,,,,,0,,,,,0,7723.0,0.2151846209,61341.0,24.26518192412275
02195,Petersburg,Alaska,57.13978948,-132.9540995,2.0,2.0,,,2,0.0,0.0,,,0,3196.0,1.1104542004,63940.0,9.198998748435544
02198,Prince of Wales-Hyder,Alaska,55.76261984,-133.0511621,2.0,,,,2,0.0,,,,0,6374.0,1.2202695576,51887.0,14.716033887668655
02220,Sitka,Alaska,57.24124555,-135.3206587,,,,,0,,,,,0,8921.0,3.0128759126,70160.0,8.922766505997085
02230,Skagway,Alaska,59.56149996,-135.3337748,,,,,0,,,,,0,1014.0,2.6455700416,64853.0,5.226824457593688
02240,Southeast Fairbanks,Alaska,63.87692095,-143.2127643,1.0,1.0,,,1,0.0,0.0,,,0,6970.0,0.278695684,63713.0,13.500717360114777
02261,Valdez-Cordova,Alaska,61.47502768,-144.7126799,,,,,0,,,,,0,9522.0,0.2677816989,82511.0,8.42260029405587
02275,Wrangell,Alaska,56.3202004,-132.05837309999998,,,,,0,,,,,0,2401.0,0.9792662974,52986.0,9.870887130362348
02282,Yakutat,Alaska,59.8909808,-140.36014509999998,,,,,0,,,,,0,646.0,0.0792310047,66875.0,7.894736842105263
02290,Yukon-Koyukuk,Alaska,65.50815459,-151.3907387,1.0,1.0,,,1,0.0,0.0,,,0,5600.0,0.0365930984,38451.0,23.285714285714285
04001,Apache,Arizona,35.39465006,-109.4892383,7.0,17.0,52.0,,110,0.0,0.0,0.0,,0,72346.0,6.413768529,32460.0,35.465678821220244
04003,Cochise,Arizona,31.87934684,-109.7516088,1.0,3.0,9.0,,15,0.0,0.0,0.0,,0,128177.0,20.56427823,45383.0,17.307317225399252
04005,Coconino,Arizona,35.83883429,-111.7707178,17.0,56.0,281.0,,266,0.0,2.0,10.0,,24,138064.0,7.6726192992,51106.0,20.420239888747247
04007,Gila,Arizona,33.80190085,-110.8132779,1.0,3.0,,,3,0.0,0.0,,,0,53179.0,11.325986655,40593.0,20.867259632561726
04009,Graham,Arizona,32.93166885,-109.8882178,1.0,2.0,2.0,,2,0.0,0.0,0.0,,0,37529.0,8.2358796196,47422.0,19.768712195901834
04011,Greenlee,Arizona,33.21498827,-109.2405279,1.0,1.0,,,2,0.0,0.0,,,0,9224.0,5.1482697863,51813.0,13.183000867302688
04012,La Paz,Arizona,33.72854224,-113.9810029,2.0,2.0,4.0,,5,0.0,0.0,0.0,,0,20304.0,4.6888309769,36321.0,20.89736012608353
04013,Maricopa,Arizona,33.34835867,-112.4918154,1.0,1.0,1.0,4.0,2146,0.0,0.0,0.0,0.0,60,4088549.0,479.4764304,55676.0,16.301944773072304
04015,Mohave,Arizona,35.70471703,-113.7577902,7.0,12.0,45.0,,45,0.0,0.0,0.0,,0,203629.0,15.742539574,39856.0,18.604422749215484
04017,Navajo,Arizona,35.3997715,-110.3218983,10.0,43.0,307.0,,390,0.0,0.0,1.0,,1,108209.0,11.100123355,36868.0,29.179643098078717
04019,Pima,Arizona,32.0971334,-111.7890033,2.0,7.0,153.0,,700,0.0,0.0,4.0,,29,1003338.0,113.09979314,46764.0,18.567920282098356
04021,Pinal,Arizona,32.90525627,-111.3449483,5.0,5.0,35.0,,182,0.0,0.0,0.0,,0,397604.0,83.330493702,51190.0,15.450045774187382
04023,Santa Cruz,Arizona,31.52508998,-110.8479088,1.0,2.0,6.0,,12,0.0,0.0,0.0,,0,46547.0,37.602208146,38941.0,21.661976067200893
04025,Yavapai,Arizona,34.59933926,-112.5538588,3.0,12.0,58.0,,66,0.0,0.0,0.0,,1,218586.0,28.558217746,46638.0,14.416293815706403
04027,Yuma,Arizona,32.76895712,-113.90666740000002,2.0,5.0,14.0,,20,0.0,0.0,0.0,,0,203292.0,38.470979394,41467.0,19.838458965429037
05001,Arkansas,Arkansas,34.29145151,-91.37277296,1.0,1.0,,,2,0.0,0.0,,,0,18569.0,17.9709208,37330.0,19.317141472346385
05003,Ashley,Arkansas,33.19153461,-91.7698471,1.0,5.0,,,11,0.0,0.0,,,0,20989.0,21.662999825,36352.0,19.681738053265995
05005,Baxter,Arkansas,36.28784385,-92.33782872,1.0,1.0,,,4,0.0,0.0,,,0,40992.0,75.093934913,38115.0,13.66120218579235
05007,Benton,Arkansas,36.33644656,-94.25680817,18.0,38.0,47.0,,62,0.0,0.0,0.0,,0,245231.0,321.63932955,59016.0,11.239198959348533
05009,Boone,Arkansas,36.3084504,-93.09374925,1.0,1.0,3.0,,3,0.0,0.0,0.0,,0,37301.0,63.526433563,38664.0,17.181844990750918
05011,Bradley,Arkansas,33.46755808,-92.15980837,4.0,4.0,6.0,,7,0.0,0.0,0.0,,0,11096.0,16.784333234,34665.0,28.505767844268206
05013,Calhoun,Arkansas,33.55598792,-92.49974403,,,,,0,,,,,0,5210.0,8.3953150843,35446.0,18.598848368522074
05015,Carroll,Arkansas,36.34038560000001,-93.54270261,1.0,2.0,,,2,0.0,0.0,,,0,27690.0,44.800928174,38145.0,17.295052365474902
05017,Chicot,Arkansas,33.26458973,-91.29539209,1.0,2.0,7.0,,7,0.0,0.0,0.0,,0,11189.0,16.199614005,29628.0,29.064259540620252
05019,Clark,Arkansas,34.04613432,-93.17484713,15.0,24.0,27.0,,27,0.0,0.0,0.0,,0,22684.0,25.472316857,35595.0,20.99277023452654
05021,Clay,Arkansas,36.36826212,-90.4148172,1.0,,,,1,0.0,,,,0,15202.0,23.217736871,32404.0,21.97079331666886
05023,Cleburne,Arkansas,35.53864922,-92.02640019,47.0,61.0,69.0,,70,1.0,1.0,4.0,,4,25587.0,45.084706902,41717.0,15.24602337124321
05025,Cleveland,Arkansas,33.89723187,-92.18537045,3.0,5.0,8.0,,8,0.0,0.0,0.0,,0,8421.0,13.412871423,42429.0,19.843249020306377
05027,Columbia,Arkansas,33.21230701,-93.22642793,1.0,1.0,3.0,,4,0.0,0.0,0.0,,0,24168.0,30.727792724,36507.0,23.092519033432637
05029,Conway,Arkansas,35.26205537,-92.70506566,1.0,1.0,4.0,,5,0.0,1.0,1.0,,1,21060.0,37.828544349,38266.0,21.28205128205128
05031,Craighead,Arkansas,35.83018283,-90.63235729,4.0,8.0,29.0,,38,0.0,0.0,0.0,,0,102884.0,153.48489237,43892.0,18.1583142179542
05033,Crawford,Arkansas,35.58928601,-94.2446814,1.0,1.0,3.0,,4,0.0,0.0,0.0,,0,61927.0,107.25055074,41792.0,18.555718830235598
05035,Crittenden,Arkansas,35.21247318,-90.30839406,7.0,17.0,86.0,,121,0.0,0.0,2.0,,2,49511.0,79.20594433,39407.0,24.21886045525237
05037,Cross,Arkansas,35.29631396,-90.77185818,1.0,1.0,6.0,,7,0.0,0.0,0.0,,0,17329.0,27.05465413,39306.0,19.412545444053322
05039,Dallas,Arkansas,33.97042763,-92.65167437,1.0,1.0,,,1,0.0,0.0,,,0,7738.0,10.761383639,35745.0,13.621090721116568
05041,Desha,Arkansas,33.83011025,-91.25500948,2.0,2.0,6.0,,6,0.0,0.0,0.0,,0,12234.0,14.986939894,26519.0,31.543240150400525
05043,Drew,Arkansas,33.59035001,-91.71777921,1.0,1.0,6.0,,6,0.0,0.0,1.0,,1,18688.0,22.125731613,33092.0,25.957833904109588
05045,Faulkner,Arkansas,35.14719007,-92.33717519,24.0,36.0,56.0,,58,0.0,1.0,1.0,,2,120417.0,192.61993238,50872.0,15.438019548734813
05047,Franklin,Arkansas,35.51202821,-93.89299569,1.0,,,,1,0.0,,,,0,17799.0,29.251865935,39482.0,20.697792010787122
05049,Fulton,Arkansas,36.38177105,-91.81729127,,,,,0,,,,,0,12186.0,19.846564485,35593.0,22.722796651895617
05051,Garland,Arkansas,34.57692074,-93.14921604,18.0,31.0,66.0,,103,0.0,0.0,0.0,,0,97119.0,146.30495102,40011.0,20.22158383014652
05053,Grant,Arkansas,34.29017991,-92.42320562,3.0,3.0,7.0,,11,0.0,0.0,0.0,,0,18046.0,28.787064887,49195.0,12.844951789870331
05055,Greene,Arkansas,36.11735460000001,-90.55832668,1.0,1.0,6.0,,6,0.0,0.0,0.0,,0,43745.0,78.459263269,42755.0,17.421419590810377
05057,Hempstead,Arkansas,33.73325583,-93.66935133,0.0,1.0,5.0,,4,0.0,0.0,1.0,,1,22208.0,29.883712392,34072.0,26.391390489913544
05059,Hot Spring,Arkansas,34.31709259,-92.95396325,1.0,5.0,8.0,,8,0.0,0.0,0.0,,0,33440.0,54.779866739,42589.0,15.989832535885167
05061,Howard,Arkansas,34.09007427,-93.9934871,1.0,5.0,,,10,0.0,0.0,,,0,13487.0,22.666934514,34672.0,19.314895825609845
05063,Independence,Arkansas,35.74242707,-91.57001641,3.0,3.0,5.0,,6,0.0,0.0,0.0,,0,37030.0,49.319726544,37592.0,18.60923575479341
05065,Izard,Arkansas,36.09604046,-91.90847954,1.0,,,,2,0.0,,,,0,13461.0,23.41297489,35188.0,20.615110318698463
05067,Jackson,Arkansas,35.59802983,-91.21494602,,,,,1,,,,,0,17495.0,26.518989302,31245.0,22.097742212060588
05069,Jefferson,Arkansas,34.26767081,-91.92619839,3.0,21.0,49.0,,106,0.0,0.0,0.0,,6,72385.0,78.293590368,36377.0,23.42888720038682
05071,Johnson,Arkansas,35.56759135,-93.46036368,1.0,8.0,,,16,0.0,0.0,,,0,26025.0,40.525027934,34031.0,20.818443804034583
05073,Lafayette,Arkansas,33.24116713,-93.60677071,1.0,3.0,,,4,0.0,0.0,,,0,7127.0,12.648231995,29882.0,25.67700294654132
05075,Lawrence,Arkansas,36.04188196,-91.10867198,1.0,1.0,10.0,,11,0.0,0.0,1.0,,1,16915.0,27.967935241,33381.0,22.70174401418859
05077,Lee,Arkansas,34.78498904,-90.78383866,1.0,2.0,,,3,0.0,0.0,,,1,9781.0,14.909863035,25724.0,25.017891831101114
05079,Lincoln,Arkansas,33.95317155,-91.74002806,5.0,6.0,10.0,,59,0.0,0.0,0.0,,0,13935.0,23.831748998,32369.0,15.486185862935056
05081,Little River,Arkansas,33.70375665,-94.23468591,,,,,0,,,,,0,12616.0,23.158453719,35396.0,18.896639188332276
05083,Logan,Arkansas,35.21413234,-93.71951016,2.0,,,,2,0.0,,,,0,21935.0,30.696690278,36463.0,18.55937998632323
05085,Lonoke,Arkansas,34.75392199,-91.88742357,1.0,16.0,29.0,,30,0.0,0.0,0.0,,0,71279.0,95.546462579,56156.0,11.974073710349472
05087,Madison,Arkansas,36.01038185,-93.72524943,1.0,,,,1,0.0,,,,0,15761.0,19.755374235,39839.0,17.911300044413426
05089,Marion,Arkansas,36.26844485,-92.68451899,1.0,,,,1,0.0,,,,0,16404.0,28.012103192,33726.0,19.629358693001706
05091,Miller,Arkansas,33.31403423,-93.89285258,8.0,20.0,,,28,0.0,0.0,,,0,43666.0,69.666031456,39955.0,20.036183758530665
05093,Mississippi,Arkansas,35.76271485,-90.05194370000002,1.0,7.0,,,7,0.0,0.0,,,0,44199.0,45.791823127,35003.0,25.016403086042672
05095,Monroe,Arkansas,34.6815935,-91.20540287,1.0,2.0,,,2,0.0,0.0,,,0,7542.0,11.364790682,31541.0,28.361177406523467
05097,Montgomery,Arkansas,34.53704874,-93.65824478,,,,,0,,,,,0,9100.0,11.443104702,35103.0,18.428571428571427
05099,Nevada,Arkansas,33.66340119,-93.30632432,1.0,1.0,,,1,0.0,0.0,,,0,8668.0,13.476024627,30750.0,30.168435625288417
05101,Newton,Arkansas,35.91947491,-93.21612969,1.0,1.0,,,1,0.0,0.0,,,0,7988.0,9.5077549052,33176.0,21.44466700050075
05103,Ouachita,Arkansas,33.58839816,-92.87795984,1.0,5.0,,,5,0.0,0.0,,,0,24728.0,32.214182855,31233.0,24.14267227434487
05105,Perry,Arkansas,34.9459153,-92.94372564,1.0,1.0,,,2,0.0,0.0,,,0,10246.0,18.768461813,45819.0,17.60687097403865
05107,Phillips,Arkansas,34.43268455,-90.84800154,2.0,4.0,,,4,0.0,1.0,,,1,19929.0,25.917573945,26829.0,33.05735360529881
05109,Pike,Arkansas,34.16250414,-93.65789349,1.0,1.0,2.0,,2,0.0,0.0,0.0,,0,11017.0,17.769790471,34519.0,18.12653172369974
05111,Poinsett,Arkansas,35.57433534,-90.66268713,3.0,5.0,7.0,,7,0.0,0.0,0.0,,0,24131.0,31.612860463,35163.0,21.70651858605114
05113,Polk,Arkansas,34.48254879,-94.22728802,1.0,1.0,6.0,,6,0.0,0.0,0.0,,0,20290.0,23.375831327,33202.0,24.982750123213407
05115,Pope,Arkansas,35.44871474,-93.03212219,1.0,5.0,23.0,,31,0.0,0.0,0.0,,0,63107.0,78.767276003,40534.0,18.413171280523557
05117,Prairie,Arkansas,34.83624419,-91.55162157,1.0,2.0,,,2,0.0,0.0,,,0,8334.0,12.462049541,37500.0,19.402447804175665
05119,Pulaski,Arkansas,34.77054088,-92.31355101,83.0,102.0,225.0,,343,0.0,2.0,8.0,,10,391806.0,517.42322701,47101.0,17.7299479844617
05121,Randolph,Arkansas,36.3415714,-91.02455531,1.0,1.0,8.0,,9,0.0,0.0,0.0,,0,17584.0,27.518169014,36318.0,19.091219290263876
05123,St. Francis,Arkansas,35.02201976,-90.74828138,1.0,31.0,,,45,0.0,0.0,,,0,27023.0,40.073839601,35066.0,21.318876512600376
05125,Saline,Arkansas,34.64916145,-92.67583224,4.0,10.0,31.0,,34,0.0,0.0,1.0,,1,115577.0,167.81364049,57632.0,8.397864627045173
05127,Scott,Arkansas,34.85588887,-94.0632176,1.0,1.0,,,1,0.0,0.0,,,0,10661.0,11.564410034,37861.0,20.673482787730983
05129,Searcy,Arkansas,35.9109364,-92.69936482,2.0,2.0,6.0,,6,0.0,0.0,0.0,,0,7938.0,11.947252317,35542.0,20.395565633660873
05131,Sebastian,Arkansas,35.19605503,-94.27162713,2.0,7.0,9.0,,11,0.0,0.0,0.0,,0,127351.0,240.1846226,40023.0,21.78624431688797
05133,Sevier,Arkansas,33.99780401,-94.2424869,1.0,1.0,6.0,,8,0.0,0.0,0.0,,0,17193.0,30.327516453,38956.0,22.125283545629035
05135,Sharp,Arkansas,36.16258158,-91.47819342,1.0,2.0,,,2,0.0,0.0,,,0,17027.0,28.731305394,31068.0,21.794796499676984
05137,Stone,Arkansas,35.86251946,-92.15684085,1.0,5.0,7.0,,7,0.0,0.0,0.0,,0,12503.0,20.542406304,30486.0,23.394385347516597
05139,Union,Arkansas,33.16887091,-92.59746952,1.0,8.0,16.0,,18,0.0,0.0,0.0,,0,40334.0,37.649550945,39836.0,20.379828432587892
05141,Van Buren,Arkansas,35.58095779,-92.51295036,11.0,19.0,26.0,,26,0.0,0.0,1.0,,2,16892.0,23.393298175,34576.0,18.257163154155812
05143,Washington,Arkansas,35.976844,-94.21800746,2.0,13.0,29.0,,44,0.0,0.0,0.0,,0,219930.0,251.54733629,45442.0,18.311280862092485
05145,White,Arkansas,35.25688493,-91.74908296,6.0,11.0,28.0,,28,0.0,0.0,0.0,,0,78823.0,76.058647934,42197.0,16.747649797647895
05147,Woodruff,Arkansas,35.18902527,-91.2439489,1.0,1.0,1.0,,1,0.0,0.0,0.0,,0,6873.0,11.060580858,30383.0,23.59959260875891
05149,Yell,Arkansas,35.00292371,-93.41171338,1.0,1.0,,,1,0.0,0.0,,,0,21716.0,23.152484354,39323.0,17.21311475409836
06001,Alameda,California,37.64629437,-121.8929271,2.0,5.0,71.0,,964,0.0,0.0,0.0,,36,1605217.0,2260.6172815,79831.0,11.810864200914892
06003,Alpine,California,38.59678594,-119.8223594,1.0,1.0,,,2,0.0,0.0,,,0,1184.0,1.4911822298,62375.0,18.66554054054054
06005,Amador,California,38.44583082,-120.65696,2.0,2.0,3.0,,7,0.0,0.0,0.0,,0,36963.0,66.237595522,57032.0,9.966723480236993
06007,Butte,California,39.66727762,-121.6005252,5.0,8.0,13.0,,16,0.0,0.0,0.0,,0,223877.0,141.31390825,44366.0,20.750680060926314
06009,Calaveras,California,38.20537103,-120.552913,2.0,2.0,3.0,,9,0.0,0.0,0.0,,0,44787.0,44.707141846,53502.0,12.595172706365686
06011,Colusa,California,39.17881957,-122.2331726,1.0,2.0,,,3,0.0,0.0,,,0,21361.0,18.794434391,54946.0,13.384204859323065
06013,Contra Costa,California,37.91923498,-121.9289527,9.0,25.0,71.0,,615,0.0,0.0,1.0,,14,1107925.0,1604.0222051,82881.0,10.101947333980188
06015,Del Norte,California,41.74228275,-123.8974063,2.0,2.0,,,2,0.0,0.0,,,0,27628.0,27.655764833,42363.0,18.89025626176343
06017,El Dorado,California,38.77965956,-120.5233166,9.0,18.0,32.0,,35,0.0,0.0,0.0,,0,183000.0,111.64849685,72586.0,9.748087431693989
06019,Fresno,California,36.75733899,-119.6466953,2.0,2.0,27.0,,251,0.0,0.0,0.0,,7,963160.0,166.89888064,45963.0,26.462062378005733
06021,Glenn,California,39.59875897,-122.3938452,2.0,2.0,,,4,0.0,0.0,,,0,27976.0,21.345275346,41699.0,19.93851873034029
06023,Humboldt,California,40.69923009,-123.876044,1.0,1.0,1.0,50.0,51,0.0,0.0,0.0,0.0,0,135182.0,38.219270159,42685.0,20.447248894083533
06025,Imperial,California,33.0393082,-115.3669042,2.0,4.0,33.0,,117,0.0,0.0,0.0,,3,178807.0,43.534898333,42560.0,22.679201597252906
06027,Inyo,California,36.51112084,-117.41119779999998,8.0,10.0,12.0,,17,0.0,0.0,0.0,,0,18326.0,1.7667330058,47278.0,10.395067117756193
06029,Kern,California,35.34329425,-118.7277796,5.0,29.0,230.0,,533,0.0,0.0,2.0,,3,871337.0,110.27241954,49788.0,22.30526191358797
06031,Kings,California,36.07409056,-119.8159973,4.0,5.0,,,13,0.0,0.0,,,1,150261.0,108.87219437,47241.0,19.074144322212682
06033,Lake,California,39.10124298,-122.7536244,4.0,5.0,,,5,0.0,0.0,,,0,64076.0,51.23845743,36132.0,24.28522379674137
06035,Lassen,California,40.67311306,-120.59350990000002,,,,,0,,,,,0,31945.0,6.7828105546,51457.0,11.137893254030365
06037,Los Angeles,California,34.30828379,-118.2282411,1.0,1.0,1.0,53.0,10517,0.0,0.0,0.0,1.0,405,10057155.0,2490.1520009,57952.0,17.54055694677073
06039,Madera,California,37.21513971,-119.76655890000002,1.0,1.0,7.0,,33,0.0,0.0,0.0,,2,153366.0,73.784428644,45742.0,20.893157544697
06041,Marin,California,38.07122463,-122.7210631,5.0,15.0,74.0,,171,0.0,0.0,1.0,,10,259358.0,498.91943986,100310.0,7.882926302639595
06043,Mariposa,California,37.57978556,-119.9073334,,,,,0,,,,,0,17645.0,12.058631897,49265.0,16.146217058656845
06045,Mendocino,California,39.4381191,-123.3911313,1.0,2.0,4.0,,4,0.0,0.0,0.0,,0,87409.0,24.984894692,43510.0,19.867519362994656
06047,Merced,California,37.18922369,-120.7209035,4.0,10.0,59.0,,76,0.0,0.0,3.0,,3,265001.0,141.94999677,44397.0,23.645571148788118
06049,Modoc,California,41.58965602,-120.7244817,,,,,0,,,,,0,9033.0,2.2416343556,41194.0,16.417579984501273
06051,Mono,California,37.93899289,-118.8872409,4.0,13.0,20.0,,23,0.0,0.0,1.0,,1,14051.0,4.6736841662,58937.0,8.696889901074657
06053,Monterey,California,36.21862405,-121.2413397,11.0,24.0,62.0,,100,1.0,1.0,2.0,,3,430201.0,132.73342057,60889.0,15.408843773027026
06055,Napa,California,38.50735751,-122.332839,0.0,0.0,10.0,,38,0.0,0.0,0.0,,2,140823.0,186.30912441,74609.0,8.582404862842008
06057,Nevada,California,39.30394768,-120.7627281,1.0,4.0,31.0,,34,0.0,0.0,1.0,,1,98639.0,104.09286589,57429.0,11.998296819716339
06059,Orange,California,33.70147516,-117.76459979999998,1.0,1.0,1.0,14.0,1376,0.0,0.0,0.0,0.0,22,3132211.0,4018.7210395,78145.0,12.309387841368286
06061,Placer,California,39.06167234,-120.7240569,5.0,7.0,9.0,,129,1.0,1.0,1.0,,7,370571.0,279.4073303,76926.0,8.616972186166754
06063,Plumas,California,40.00355989,-120.8395236,3.0,3.0,,,4,0.0,0.0,,,0,18754.0,7.3652724675,50125.0,12.509331342646902
06065,Riverside,California,33.74314981,-115.9933578,8.0,15.0,149.0,,1961,0.0,3.0,8.0,,50,2323892.0,340.07325608,57972.0,16.20940215810373
06067,Sacramento,California,38.45106826,-121.3425374,1.0,2.0,11.0,653.0,853,0.0,0.0,1.0,24.0,32,1479300.0,1596.1292848,57509.0,17.63516528087609
06069,San Benito,California,36.60308176,-121.069975,2.0,2.0,2.0,6.0,39,0.0,0.0,0.0,1.0,2,58051.0,44.314210812,73814.0,10.721606862930871
06071,San Bernardino,California,34.84060306,-116.1774685,9.0,38.0,353.0,,977,0.0,1.0,13.0,,31,2106754.0,108.25593326,54469.0,18.616079523285585
06073,San Diego,California,33.03484597,-116.7365326,2.0,2.0,2.0,603.0,1930,0.0,0.0,0.0,7.0,53,3253356.0,794.38135555,66529.0,13.648183598720829
06075,San Francisco,California,37.75215114,-122.4385672,9.0,28.0,152.0,,1013,0.0,0.0,0.0,,17,850282.0,18848.498575,87701.0,12.252405672471015
06077,San Joaquin,California,37.93433732,-121.2730061,8.0,25.0,123.0,,341,0.0,2.0,6.0,,17,714860.0,540.55410882,55045.0,17.428167753126488
06079,San Luis Obispo,California,35.38822029,-120.4039028,13.0,42.0,93.0,,120,0.0,0.0,0.0,,1,278680.0,86.047009542,64014.0,13.35151428161332
06081,San Mateo,California,37.4228808,-122.32755459999998,2.0,15.0,110.0,,747,0.0,0.0,1.0,,21,754748.0,1715.3010657,98546.0,7.617111936699402
06083,Santa Barbara,California,34.65329488,-120.0188492,9.0,24.0,152.0,,313,0.0,0.0,1.0,,2,439395.0,163.25569659,65161.0,15.220928777068469
06085,Santa Clara,California,37.23104908,-121.6970462,2.0,2.0,2.0,196.0,1793,0.0,0.0,0.0,8.0,65,1885056.0,1500.7291893,101173.0,9.135696764446255
06087,Santa Cruz,California,37.05580291,-122.0066524,7.0,14.0,41.0,,96,0.0,0.0,1.0,,2,270931.0,616.13143107,70088.0,14.472688618135244
06089,Shasta,California,40.76391419,-122.0396884,1.0,1.0,3.0,,25,0.0,0.0,1.0,,3,179228.0,47.687714033,45582.0,17.26571741022608
06091,Sierra,California,39.57713498,-120.52007009999998,,,,,0,,,,,0,2931.0,3.1337591117,43984.0,11.224837939269873
06093,Siskiyou,California,41.59198861,-122.5407434,3.0,3.0,5.0,,5,0.0,0.0,0.0,,0,43668.0,6.9637867467,38524.0,21.81002106805899
06095,Solano,California,38.26827353,-121.9357113,6.0,8.0,34.0,,140,0.0,0.0,0.0,,2,429596.0,543.48518937,69227.0,12.398858462369295
06097,Sonoma,California,38.52746429,-122.8862506,1.0,3.0,22.0,,160,0.0,0.0,1.0,,2,497776.0,317.24772804,66833.0,11.068231493683905
06099,Stanislaus,California,37.55862499,-120.9970722,2.0,5.0,31.0,,163,0.0,0.0,0.0,,4,530561.0,367.519528,51591.0,18.04486194801352
06101,Sutter,California,39.03417539,-121.6945899,6.0,16.0,23.0,,24,0.0,1.0,3.0,,3,95406.0,160.66740977,52943.0,17.33119510303335
06103,Tehama,California,40.12570935,-122.2370171,1.0,1.0,,,1,0.0,0.0,,,1,63015.0,21.672782844,40687.0,21.206062048718557
06105,Trinity,California,40.64917670000001,-123.114713,,,,,0,,,,,0,13180.0,3.9427318947,35270.0,19.77996965098634
06107,Tulare,California,36.22026558,-118.8020203,2.0,11.0,43.0,,352,0.0,0.0,1.0,,15,455769.0,96.563936248,42789.0,27.893516233004
06109,Tuolumne,California,38.02644018,-119.9525093,2.0,1.0,,,2,0.0,0.0,,,0,53864.0,24.557268145,50731.0,13.322441705034903
06111,Ventura,California,34.44465746,-119.0910613,5.0,13.0,98.0,,365,0.0,0.0,3.0,,13,843110.0,461.86273094,78593.0,10.49519042592307
06113,Yolo,California,38.68278902,-121.9018288,1.0,2.0,10.0,,102,0.0,0.0,1.0,,4,209671.0,217.20800282,57663.0,18.551921820375732
06115,Yuba,California,39.26255932,-121.3535644,3.0,6.0,15.0,,15,0.0,0.0,0.0,,1,73897.0,123.47946969,48739.0,20.406782413359135
08001,Adams,Colorado,39.87432092,-104.3362578,6.0,14.0,181.0,,726,0.0,0.0,2.0,,27,479977.0,438.8979388,61444.0,12.764153282344779
08003,Alamosa,Colorado,37.57250606,-105.7885451,1.0,4.0,,,7,0.0,0.0,,,2,16353.0,23.088195473,32385.0,29.26680119855684
08005,Arapahoe,Colorado,39.64977461,-104.3353617,10.0,22.0,241.0,,1183,0.0,0.0,3.0,,43,617668.0,816.12917964,66288.0,10.585460150113006
08007,Archuleta,Colorado,37.19474156,-107.0476867,1.0,6.0,,,6,0.0,0.0,,,0,12355.0,10.195640232,45607.0,11.080534196681505
08009,Baca,Colorado,37.31940883,-102.5603223,3.0,9.0,10.0,,10,0.0,0.0,0.0,,0,3648.0,1.4031351005,37477.0,17.37938596491228
08011,Bent,Colorado,37.95474293,-103.0720195,,,,,0,,,,,0,5816.0,3.8880340539,34773.0,16.213892709766164
08013,Boulder,Colorado,40.09313619,-105.3546767,11.0,37.0,107.0,,299,0.0,0.0,2.0,,15,313961.0,448.9143187,72282.0,12.97358589124127
08014,Broomfield,Colorado,39.95998787,-105.0566324,2.0,17.0,52.0,,88,0.0,0.0,2.0,,2,62449.0,2098.7742831,83334.0,5.871991545100802
08015,Chaffee,Colorado,38.74745778,-106.19265729999998,3.0,15.0,23.0,,28,0.0,1.0,2.0,,3,18507.0,19.762022163,50993.0,9.039822769762793
08017,Cheyenne,Colorado,38.82777431,-102.6032558,,,,,0,,,,,0,2071.0,1.0549542427,54375.0,11.057460164171898
08019,Clear Creek,Colorado,39.68864463,-105.6463118,2.0,3.0,6.0,,11,0.0,0.0,0.0,,0,9238.0,24.304184289,68250.0,7.328426066248106
08021,Conejos,Colorado,37.201606,-106.19174879999998,,,,,0,,,,,0,8213.0,6.3692452724,34630.0,21.977352976987703
08023,Costilla,Colorado,37.27732493,-105.4276548,3.0,3.0,,,3,0.0,0.0,,,0,3590.0,3.1182962122,26610.0,30.41782729805014
08025,Crowley,Colorado,38.32608609,-103.7844965,1.0,1.0,1.0,,2,1.0,1.0,1.0,,1,5537.0,7.4394146957,31719.0,26.71121545963518
08027,Custer,Colorado,38.10883162,-105.3683478,2.0,2.0,,,2,0.0,0.0,,,0,4375.0,6.7070497655,38605.0,17.645714285714284
08029,Delta,Colorado,38.86246243,-107.8631342,1.0,1.0,7.0,,12,0.0,0.0,1.0,,1,30221.0,27.101189707,42011.0,16.180801429469575
08031,Denver,Colorado,39.76018276,-104.8725695,3.0,21.0,214.0,,1402,0.0,0.0,3.0,,56,663303.0,4674.0308503,56258.0,16.09294696390639
08033,Dolores,Colorado,37.75208676,-108.5211585,,,,,0,,,,,0,1789.0,1.9434572114,32240.0,19.340413638904415
08035,Douglas,Colorado,39.33133796,-104.930001,3.0,8.0,67.0,,311,0.0,0.0,0.0,,12,314238.0,407.94521315,105759.0,3.7573431602797878
08037,Eagle,Colorado,39.62754308,-106.6933637,20.0,39.0,187.0,,468,0.0,0.0,2.0,,6,52894.0,32.64703072,78763.0,8.010360343328166
08039,Elbert,Colorado,39.28656773,-104.1358721,3.0,3.0,10.0,,17,0.0,0.0,1.0,,1,24225.0,14.200066737,87288.0,5.040247678018575
08041,El Paso,Colorado,38.83240149,-104.5251411,1.0,4.0,137.0,,652,0.0,1.0,5.0,,41,665171.0,335.64075915,60219.0,10.97642561085796
08043,Fremont,Colorado,38.47362326,-105.4399667,1.0,2.0,8.0,,8,0.0,0.0,0.0,,0,46835.0,31.323174703,42308.0,12.836553859293264
08045,Garfield,Colorado,39.59921777,-107.902708,4.0,10.0,45.0,,59,0.0,0.0,1.0,,2,57495.0,20.277894093,61300.0,10.912253239412124
08047,Gilpin,Colorado,39.85646523,-105.5252597,1.0,,,,1,0.0,,,,0,5708.0,40.834962852,67544.0,6.867554309740715
08049,Grand,Colorado,40.10603347,-106.1178042,2.0,2.0,4.0,,4,0.0,0.0,0.0,,0,14490.0,8.4080663561,67623.0,10.510697032436163
08051,Gunnison,Colorado,38.66611652,-107.0320729,6.0,11.0,79.0,,99,0.0,0.0,1.0,,3,15889.0,5.324249972,50746.0,14.595002832148026
08053,Hinsdale,Colorado,37.82247444,-107.3004345,1.0,1.0,1.0,,3,0.0,0.0,0.0,,0,856.0,0.7259019094,51250.0,11.214953271028037
08055,Huerfano,Colorado,37.68473101,-104.9612585,1.0,1.0,1.0,,1,0.0,0.0,0.0,,0,6521.0,4.3298913942,33257.0,16.6538874405766
08057,Jackson,Colorado,40.66593870000001,-106.3408905,,,,,0,,,,,0,1306.0,0.8669379065,45053.0,13.705972434915774
08059,Jefferson,Colorado,39.58635604,-105.2517692,9.0,37.0,213.0,,809,0.0,0.0,5.0,,31,558810.0,759.1793266,72017.0,7.986435461069058
08061,Kiowa,Colorado,38.43260896,-102.7392145,,,,,0,,,,,0,1465.0,0.7823244232,38385.0,10.511945392491468
08063,Kit Carson,Colorado,39.30497777,-102.6022199,1.0,4.0,8.0,,8,0.0,0.0,1.0,,1,8174.0,3.3149428067,44449.0,12.637631514558356
08065,Lake,Colorado,39.20278823,-106.3555697,3.0,3.0,,,5,0.0,0.0,,,0,7401.0,20.757771652,46928.0,11.295770841778138
08067,La Plata,Colorado,37.28632032,-107.8429014,21.0,24.0,44.0,,44,0.0,0.0,0.0,,0,53994.0,33.323772586,61910.0,10.314108975071305
08069,Larimer,Colorado,40.66671597,-105.4625784,1.0,4.0,84.0,,198,0.0,0.0,3.0,,9,325228.0,135.03440473,61942.0,12.803325666916747
08071,Las Animas,Colorado,37.3153406,-104.0376458,1.0,2.0,,,2,0.0,0.0,,,0,14322.0,3.0385895428,42808.0,13.447842480100544
08073,Lincoln,Colorado,38.98749519,-103.5136649,1.0,1.0,,,2,0.0,0.0,,,0,5515.0,2.1763761736,40438.0,10.825022665457842
08075,Logan,Colorado,40.7249637,-103.110817,2.0,6.0,13.0,,13,0.0,0.0,0.0,,0,21862.0,11.708918652,43340.0,15.524654651907419
08077,Mesa,Colorado,39.01787888,-108.469799,1.0,5.0,14.0,,35,0.0,0.0,0.0,,0,148166.0,46.02284001,50070.0,15.950352982465613
08079,Mineral,Colorado,37.66954283,-106.9281698,2.0,2.0,,,2,0.0,0.0,,,0,793.0,0.8860870484,49125.0,8.19672131147541
08081,Moffat,Colorado,40.61810999,-108.2070876,4.0,3.0,,,3,0.0,0.0,,,0,13034.0,2.7803759,53664.0,10.88691115543962
08083,Montezuma,Colorado,37.33859579,-108.5958857,1.0,8.0,,,12,0.0,1.0,,,2,26006.0,12.889976505,41622.0,18.499577020687532
08085,Montrose,Colorado,38.40214114,-108.26390220000002,3.0,8.0,35.0,,63,0.0,0.0,3.0,,5,40866.0,18.837579193,43890.0,17.80942592864484
08087,Morgan,Colorado,40.26279810000001,-103.8093302,3.0,5.0,23.0,,89,0.0,0.0,0.0,,0,28288.0,22.30248204,49495.0,10.555712669683258
08089,Otero,Colorado,37.9014485,-103.7173385,3.0,3.0,5.0,,5,0.0,0.0,0.0,,0,18440.0,14.606015807,34477.0,22.52711496746204
08091,Ouray,Colorado,38.14717457,-107.7675136,3.0,4.0,,,4,0.0,1.0,,,1,4651.0,8.9236751957,62800.0,9.13781982369383
08093,Park,Colorado,39.120926,-105.7182065,1.0,3.0,5.0,,6,0.0,0.0,0.0,,0,16440.0,8.4579871298,61675.0,6.21654501216545
08095,Phillips,Colorado,40.59414277,-102.3577703,2.0,4.0,,,4,0.0,0.0,,,0,4347.0,6.2303041849,46955.0,11.709224752703014
08097,Pitkin,Colorado,39.21720112,-106.9310027,11.0,14.0,27.0,,49,0.0,0.0,2.0,,2,17543.0,18.491783905,69789.0,8.59032092572536
08099,Prowers,Colorado,37.95544985,-102.3926052,1.0,,,,1,0.0,,,,0,12121.0,7.4243298348,41037.0,19.981849682369443
08101,Pueblo,Colorado,38.17359144,-104.5127437,1.0,3.0,21.0,,64,0.0,0.0,2.0,,4,162158.0,70.210993427,42000.0,19.676488363201322
08103,Rio Blanco,Colorado,39.97913541,-108.2179009,1.0,1.0,,,1,0.0,0.0,,,0,6658.0,1.9671089583,56771.0,11.835386001802343
08105,Rio Grande,Colorado,37.5836865,-106.3847838,3.0,5.0,5.0,,5,0.0,0.0,0.0,,0,11623.0,12.336116249,40177.0,18.70429321173535
08107,Routt,Colorado,40.48596505,-106.9905548,1.0,3.0,17.0,,41,0.0,0.0,0.0,,0,23980.0,10.894489846,63505.0,10.041701417848207
08109,Saguache,Colorado,38.08054629,-106.282466,3.0,3.0,,,3,0.0,0.0,,,0,6255.0,2.1596520906,32457.0,22.5259792166267
08111,San Juan,Colorado,37.76248981,-107.67632890000002,,,,,0,,,,,0,552.0,1.9663727206,41250.0,3.8043478260869565
08113,San Miguel,Colorado,38.00450883,-108.4020725,1.0,1.0,10.0,,12,0.0,0.0,0.0,,0,7767.0,6.3657662953,58170.0,11.883610145487317
08115,Sedgwick,Colorado,40.87595412,-102.3519227,,,,,0,,,,,0,2367.0,4.2022417748,46977.0,14.448669201520913
08117,Summit,Colorado,39.63803232,-106.1150762,1.0,2.0,10.0,,74,0.0,0.0,0.0,,1,29269.0,50.969936783,70192.0,12.033209197444394
08119,Teller,Colorado,38.88133511,-105.1614893,7.0,7.0,16.0,,16,1.0,1.0,2.0,,2,23472.0,45.028853782,63723.0,7.4642126789366054
08121,Washington,Colorado,39.97015535,-103.202587,1.0,1.0,5.0,,5,0.0,0.0,0.0,,0,4814.0,1.9494982734,46315.0,10.988782717075198
08123,Weld,Colorado,40.55499405,-104.3929621,6.0,37.0,255.0,,858,1.0,1.0,12.0,,55,278065.0,78.851684923,62820.0,12.245338320176938
08125,Yuma,Colorado,40.00346839,-102.4258673,1.0,2.0,2.0,,2,0.0,0.0,0.0,,0,10150.0,4.2378644826,42026.0,14.374384236453203
09001,Fairfield,Connecticut,41.26809896,-73.3881171,15.0,102.0,1245.0,,6480,0.0,3.0,21.0,,365,941618.0,1510.2017654,86670.0,8.660943185028323
09003,Hartford,Connecticut,41.80283011,-72.73103891,11.0,61.0,539.0,,2570,0.0,2.0,13.0,,213,895699.0,1214.6158128,68027.0,11.257129906363634
09005,Litchfield,Connecticut,41.7937534,-73.2451475,3.0,8.0,113.0,,490,0.0,0.0,1.0,,35,185141.0,196.7501285,73519.0,6.862877482567341
09007,Middlesex,Connecticut,41.45949668,-72.53714864,6.0,25.0,135.0,,379,0.0,1.0,7.0,,28,164438.0,440.50933532,79837.0,6.8068208078424695
09009,New Haven,Connecticut,41.4080325,-72.93620426,10.0,41.0,647.0,,3758,0.0,0.0,17.0,,195,860874.0,1418.6894119,62715.0,12.40553205230963
09011,New London,Connecticut,41.48896435,-72.10430976,6.0,20.0,85.0,,236,0.0,0.0,4.0,,7,272033.0,401.09168696,67574.0,9.42716508658876
09013,Tolland,Connecticut,41.85853803,-72.3308481,16.0,37.0,111.0,,216,2.0,4.0,13.0,,22,151689.0,367.78399765,80129.0,6.080203574418712
09015,Windham,Connecticut,41.82972709,-71.98182316,2.0,7.0,43.0,,89,0.0,0.0,1.0,,1,117078.0,228.15463809,60689.0,10.692017287620219
10001,Kent,Delaware,39.08646628,-75.56884914,5.0,21.0,128.0,,345,0.0,0.0,3.0,,7,171474.0,304.7934112,55184.0,12.751787442994273
10003,New Castle,Delaware,39.57992638,-75.64054974,6.0,27.0,156.0,,974,0.0,0.0,2.0,,20,551997.0,1312.0238484,66283.0,11.017632342204758
10005,Sussex,Delaware,38.66143781,-75.39031349,8.0,27.0,151.0,,678,0.0,1.0,3.0,,16,211224.0,244.93186001,54218.0,12.671382039919706
11001,District of Columbia,District of Columbia,38.90417773,-77.01655992,71.0,187.0,902.0,,2197,1.0,2.0,21.0,,72,659009.0,11490.11954,72935.0,17.00432012309392
12001,Alachua,Florida,29.67866525,-82.35928158,1.0,15.0,79.0,,194,0.0,0.0,0.0,,0,256581.0,308.50950977,44702.0,22.75577692814355
12003,Baker,Florida,30.33060121,-82.28467476,5.0,8.0,16.0,,17,0.0,0.0,2.0,,2,27312.0,48.451027051,53327.0,16.556824838898653
12005,Bay,Florida,30.26548745,-85.62122584,1.0,6.0,30.0,,39,0.0,0.0,1.0,,2,178361.0,244.27089664,48577.0,15.341358256569542
12007,Bradford,Florida,29.95079741,-82.16611613,1.0,2.0,22.0,,35,0.0,0.0,0.0,,1,26919.0,94.338220672,43373.0,16.93599316467922
12009,Brevard,Florida,28.29409504,-80.73091022,5.0,13.0,79.0,,173,0.0,0.0,0.0,,6,560683.0,587.92371439,49914.0,13.79692268180059
12011,Broward,Florida,26.15184651,-80.48725556,4.0,36.0,504.0,,3363,0.0,0.0,3.0,,92,1863780.0,1621.8541187,52954.0,14.246370279754048
12013,Calhoun,Florida,30.40666734,-85.19394153,3.0,4.0,,,5,0.0,0.0,,,0,14550.0,25.711451827,37089.0,11.154639175257731
12015,Charlotte,Florida,26.90131002,-81.92949121,1.0,1.0,12.0,,124,0.0,0.0,0.0,,5,169642.0,271.61376244,44865.0,12.09075582697681
12017,Citrus,Florida,28.84804315,-82.47614748,3.0,9.0,28.0,,74,0.0,0.0,2.0,,8,140453.0,254.21245189,39054.0,17.378767274461918
12019,Clay,Florida,29.98319144,-81.85609986,4.0,7.0,46.0,,170,0.0,1.0,5.0,,9,200346.0,357.27318373,59179.0,10.104020045321594
12021,Collier,Florida,26.11091986,-81.34687065,5.0,25.0,119.0,,395,0.0,0.0,1.0,,5,348236.0,189.59334129,59783.0,13.029956696033723
12023,Columbia,Florida,30.22509788,-82.62160164,3.0,3.0,23.0,,34,0.0,0.0,0.0,,0,68198.0,88.399428042,42848.0,17.931610897680283
12027,DeSoto,Florida,27.18677893,-81.80941373,5.0,7.0,20.0,,22,0.0,1.0,3.0,,3,35134.0,58.880799073,35513.0,28.23475835373143
12029,Dixie,Florida,29.60631086,-83.15724673,2.0,2.0,,,3,0.0,0.0,,,0,16084.0,23.684422744,34634.0,19.329768714250186
12031,Duval,Florida,30.33225875,-81.66976468,10.0,39.0,218.0,,745,0.0,1.0,4.0,,14,900890.0,1245.4276983,49196.0,16.234168433438043
12033,Escambia,Florida,30.67652764,-87.37284571,1.0,14.0,118.0,,260,0.0,0.0,1.0,,4,309574.0,480.28674691,46117.0,13.784103316169963
12035,Flagler,Florida,29.45933576,-81.31508595,7.0,18.0,44.0,,46,0.0,0.0,1.0,,2,102917.0,230.99691298,48898.0,13.071698553203067
12037,Franklin,Florida,29.83791238,-84.82731662,2.0,2.0,,,2,0.0,0.0,,,0,11705.0,21.528379227,40301.0,17.599316531396838
12039,Gadsden,Florida,30.57796289,-84.61915825,1.0,1.0,6.0,,40,0.0,0.0,0.0,,0,46153.0,88.891268286,38533.0,23.924771954152494
12041,Gilchrist,Florida,29.72856978,-82.79880657,4.0,,,,6,0.0,,,,0,17033.0,52.205512015,40881.0,21.898667292902015
12043,Glades,Florida,26.95635849,-81.18996211,3.0,4.0,,,5,1.0,1.0,,,1,13420.0,17.014259764,34143.0,18.628912071535023
12045,Gulf,Florida,29.93543004,-85.24270990000002,1.0,1.0,,,1,0.0,0.0,,,0,15851.0,29.207415534,40822.0,13.046495489243581
12047,Hamilton,Florida,30.49673973,-82.94998918,2.0,2.0,,,2,0.0,0.0,,,0,14362.0,27.852272385,38980.0,20.630831360534746
12049,Hardee,Florida,27.49293939,-81.80956574,2.0,3.0,,,3,0.0,0.0,,,0,27302.0,42.731756899,36222.0,24.59893048128342
12051,Hendry,Florida,26.55386945,-81.16469006,4.0,9.0,,,26,0.0,0.0,,,0,38376.0,35.940976517,37552.0,25.474254742547426
12053,Hernando,Florida,28.55364461,-82.42700204,5.0,13.0,51.0,,76,0.0,0.0,0.0,,2,176797.0,403.71096062,42274.0,15.370735928777073
12055,Highlands,Florida,27.34254618,-81.34071957,5.0,17.0,47.0,,64,0.0,1.0,4.0,,6,98862.0,103.63219933,35865.0,19.106431186907002
12057,Hillsborough,Florida,27.9276559,-82.32013172,2.0,3.0,47.0,,869,0.0,0.0,0.0,,18,1323059.0,1406.1656524,51681.0,16.14183494462454
12059,Holmes,Florida,30.86747479,-85.81319222,1.0,2.0,,,4,0.0,0.0,,,0,19569.0,40.673970115,37437.0,23.358372936787777
12061,Indian River,Florida,27.69308961,-80.60556721,10.0,16.0,62.0,,78,0.0,0.0,0.0,,1,145342.0,313.08292702,47446.0,13.968433075091852
12063,Jackson,Florida,30.7954597,-85.21500423,1.0,1.0,4.0,,6,0.0,0.0,0.0,,0,48721.0,52.609709109,35470.0,19.139590730896327
12065,Jefferson,Florida,30.43669112,-83.89442308,8.0,12.0,,,22,0.0,1.0,,,1,14082.0,23.889889623,41696.0,12.95980684561852
12067,Lafayette,Florida,29.98484137,-83.18166636,1.0,,,,1,0.0,,,,0,8742.0,16.069996679,36236.0,14.55044612216884
12069,Lake,Florida,28.76202069,-81.7125123,4.0,25.0,101.0,,179,0.0,0.0,2.0,,5,317586.0,374.98241314,47141.0,13.332451682378947
12071,Lee,Florida,26.58410348,-81.88399313,2.0,5.0,56.0,,677,1.0,2.0,3.0,,22,680970.0,964.95403225,50390.0,15.304492121532519
12073,Leon,Florida,30.45955727,-84.27491114,6.0,16.0,68.0,,154,1.0,0.0,0.0,,0,284788.0,438.64443441,48248.0,20.417995140244674
12075,Levy,Florida,29.31829741,-82.74007147,2.0,4.0,,,7,0.0,0.0,,,0,39707.0,36.459294309,35480.0,21.789608885083236
12077,Liberty,Florida,30.23766008,-84.8829258,2.0,,,,2,0.0,,,,0,8285.0,10.121314956,37917.0,13.84429692214846
12079,Madison,Florida,30.44396917,-83.47398594,11.0,14.0,,,15,0.0,0.0,,,0,18560.0,26.60191139,29806.0,25.339439655172413
12081,Manatee,Florida,27.47196942,-82.31831044,2.0,7.0,28.0,,276,0.0,0.0,1.0,,19,353411.0,531.33812168,51483.0,14.174431469309106
12083,Marion,Florida,29.21227113,-82.05803627,5.0,23.0,72.0,,107,0.0,0.0,2.0,,3,340341.0,226.62767089,40295.0,17.707534502161067
12085,Martin,Florida,27.0772071,-80.43109784,4.0,25.0,98.0,,138,0.0,0.0,0.0,,4,153592.0,295.91098345,52622.0,11.561800093754883
12086,Miami-Dade,Florida,25.6112362,-80.55170587,13.0,169.0,2123.0,,8066,0.0,0.0,7.0,,146,2664418.0,1454.4185518,44224.0,19.596887575447997
12087,Monroe,Florida,25.20904673,-81.07812416,3.0,22.0,51.0,,66,0.0,0.0,3.0,,3,77150.0,76.322425169,60303.0,12.72197018794556
12089,Nassau,Florida,30.61037141,-81.80297522,1.0,1.0,8.0,,37,0.0,0.0,0.0,,0,77187.0,132.31784045,59196.0,12.569474134245404
12091,Okaloosa,Florida,30.69143028,-86.59267105,1.0,2.0,23.0,,107,0.0,0.0,0.0,,1,195798.0,222.81400398,57655.0,11.655379523794931
12093,Okeechobee,Florida,27.386336199999995,-80.88944347,3.0,5.0,,,5,0.0,0.0,,,0,39420.0,54.024408265,36415.0,23.097412480974125
12095,Orange,Florida,28.51367621,-81.31799498,9.0,48.0,541.0,,1073,1.0,2.0,5.0,,18,1256055.0,1529.7338906,49391.0,16.886601303286877
12097,Osceola,Florida,28.06312234,-81.14882926,8.0,25.0,170.0,,361,0.0,0.0,4.0,,5,311962.0,277.16119011,45536.0,19.311005827632854
12099,Palm Beach,Florida,26.64676272,-80.46536002,13.0,72.0,567.0,,1814,0.0,0.0,14.0,,105,1398757.0,755.96466773,55277.0,13.669779668662963
12101,Pasco,Florida,28.30810945,-82.40227529,2.0,7.0,38.0,,186,0.0,0.0,2.0,,3,488310.0,722.71693249,46010.0,13.331899817738732
12103,Pinellas,Florida,27.93130349,-82.72239666,2.0,22.0,126.0,,513,0.0,0.0,5.0,,14,939548.0,3562.6795555,47090.0,13.913818133826053
12105,Polk,Florida,27.95027105,-81.69732947,10.0,17.0,157.0,,286,0.0,0.0,4.0,,10,637691.0,393.95979207,44146.0,17.28501735166405
12107,Putnam,Florida,29.60779729,-81.74230285,4.0,13.0,25.0,,46,0.0,0.0,1.0,,1,72304.0,101.89085222,33003.0,26.44390351847754
12109,St. Johns,Florida,29.90096506,-81.43589967,1.0,9.0,79.0,,179,0.0,0.0,2.0,,2,218362.0,423.26477529,69523.0,8.871506947179455
12111,St. Lucie,Florida,27.37763908,-80.47106649,8.0,29.0,132.0,,172,0.0,2.0,6.0,,8,293136.0,561.72251106,44140.0,17.720443753070246
12113,Santa Rosa,Florida,30.693414500000006,-87.02458128,1.0,1.0,4.0,,115,1.0,1.0,1.0,,4,163903.0,177.15590737,60652.0,11.794170942569691
12115,Sarasota,Florida,27.18546175,-82.33174248,2.0,15.0,82.0,,252,0.0,0.0,3.0,,16,398011.0,766.28137617,52796.0,10.874322568974224
12117,Seminole,Florida,28.7158582,-81.24060348,1.0,12.0,103.0,,283,0.0,0.0,0.0,,2,442905.0,1512.0578727,58538.0,11.972093338300539
12119,Sumter,Florida,28.70181754,-82.0794267,5.0,29.0,80.0,,114,0.0,0.0,3.0,,11,113589.0,231.1094292,52594.0,9.105635228763349
12121,Suwannee,Florida,30.19746066,-82.99099670000003,3.0,18.0,80.0,,80,0.0,0.0,3.0,,3,43653.0,64.179586421,37796.0,21.8450049252056
12123,Taylor,Florida,30.04848048,-83.60445406,1.0,,,,1,0.0,,,,0,22582.0,20.725228238,36195.0,12.16012753520503
12125,Union,Florida,30.04412971,-82.37497443,2.0,2.0,,,2,0.0,0.0,,,0,15159.0,61.341150462,37778.0,14.723926380368098
12127,Volusia,Florida,29.05858895,-81.18263252,2.0,9.0,39.0,,242,0.0,0.0,0.0,,8,510806.0,497.19992295,42240.0,16.37803784607072
12129,Wakulla,Florida,30.16548905,-84.39895211,3.0,7.0,,,13,0.0,0.0,,,1,31314.0,53.529058508,54078.0,12.678035383534521
12131,Walton,Florida,30.64204028,-86.16935664,9.0,15.0,26.0,,29,0.0,0.0,0.0,,0,61528.0,68.779121381,46910.0,16.832986607723313
12133,Washington,Florida,30.61359259,-85.66002461,1.0,1.0,5.0,,5,0.0,0.0,0.0,,0,24627.0,42.553445095,38330.0,18.402566289032364
13001,Appling,Georgia,31.74847232,-82.28909114,0.0,3.0,11.0,,14,0.0,0.0,0.0,,0,18410.0,36.411471039,37388.0,20.06518196632265
13003,Atkinson,Georgia,31.29633502,-82.87545866,2.0,,,,2,0.0,,,,0,8268.0,24.209373282,31296.0,27.45524915336236
13005,Bacon,Georgia,31.55456473,-82.45936528,6.0,10.0,,,14,0.0,0.0,,,0,11251.0,39.372054789,37303.0,17.322904630699494
13007,Baker,Georgia,31.32669878,-84.44218806,1.0,4.0,14.0,,16,1.0,1.0,2.0,,2,3250.0,9.0420637971,45903.0,15.661538461538461
13009,Baldwin,Georgia,33.06882326,-83.24701748,2.0,3.0,30.0,,90,0.0,0.0,1.0,,2,45808.0,173.26307428,34595.0,27.294359063918964
13011,Banks,Georgia,34.35607081,-83.49644388,3.0,4.0,,,8,0.0,0.0,,,0,18336.0,81.825059324,40721.0,15.472294938917976
13013,Barrow,Georgia,33.99148694,-83.71436292,1.0,6.0,27.0,,66,0.0,0.0,2.0,,3,73340.0,501.80587698,53133.0,14.382328879192801
13015,Bartow,Georgia,34.23732119,-84.83887523,9.0,56.0,131.0,,235,0.0,0.0,2.0,,17,101942.0,231.56271163,50565.0,14.615173333856507
13017,Ben Hill,Georgia,31.76095874,-83.22145359,2.0,3.0,8.0,,10,0.0,0.0,0.0,,0,17405.0,67.115205338,29510.0,34.1740879057742
13019,Berrien,Georgia,31.27590016,-83.22529920000002,3.0,4.0,,,8,0.0,0.0,,,0,18986.0,42.463597122,35740.0,25.339724007163174
13021,Bibb,Georgia,32.80904227,-83.70489165,2.0,11.0,42.0,,95,0.0,0.0,1.0,,1,154194.0,613.85708065,37108.0,26.63852030558906
13023,Bleckley,Georgia,32.43829035,-83.33035166,1.0,1.0,,,3,0.0,0.0,,,0,12835.0,59.470971049,37060.0,20.202571094663032
13025,Brantley,Georgia,31.19576557,-81.97743999,6.0,13.0,,,13,1.0,1.0,,,1,18403.0,42.655658033,36837.0,20.898766505461065
13027,Brooks,Georgia,30.83922642,-83.58303423,3.0,6.0,,,21,0.0,0.0,,,1,15645.0,31.460501666,34547.0,24.410354745925215
13029,Bryan,Georgia,32.00979311,-81.44002948,6.0,10.0,29.0,,30,0.0,1.0,1.0,,2,34104.0,87.096228739,65862.0,13.221323011963406
13031,Bulloch,Georgia,32.39577406,-81.74811421,3.0,10.0,,,22,0.0,0.0,,,1,73141.0,114.35230429,37125.0,28.605023174416537
13033,Burke,Georgia,33.05917989,-81.99928721,3.0,8.0,28.0,,28,0.0,0.0,1.0,,2,22838.0,27.112519115,34589.0,30.046413871617478
13035,Butts,Georgia,33.283094500000004,-83.95435040000002,3.0,6.0,27.0,,36,0.0,0.0,0.0,,0,23479.0,131.7056227,40753.0,18.122577622556328
13037,Calhoun,Georgia,31.53169785,-84.62725131,9.0,15.0,58.0,,58,0.0,1.0,2.0,,2,6443.0,22.654635493,28200.0,23.110352320347666
13039,Camden,Georgia,30.92951916,-81.66601818,0.0,0.0,4.0,,23,0.0,0.0,0.0,,0,52092.0,85.160835276,53327.0,13.493434692467174
13043,Candler,Georgia,32.40209349,-82.07702563,1.0,4.0,,,4,0.0,0.0,,,0,10962.0,44.58171172,33379.0,28.781244298485678
13045,Carroll,Georgia,33.58138199,-85.07976677,26.0,64.0,183.0,,237,0.0,0.0,4.0,,6,113756.0,236.70227107,45486.0,18.598579415591267
13047,Catoosa,Georgia,34.89872298,-85.13757014,1.0,4.0,12.0,,17,0.0,0.0,0.0,,0,65645.0,415.75588371,52265.0,11.729758549775307
13049,Charlton,Georgia,30.78371028,-82.13951596,1.0,1.0,1.0,,4,0.0,0.0,0.0,,0,12968.0,16.623789475,43871.0,18.661320172732882
13051,Chatham,Georgia,32.00043026,-81.12489526,7.0,15.0,125.0,,160,0.0,0.0,4.0,,5,282613.0,667.69685409,49596.0,17.178969120316474
13053,Chattahoochee,Georgia,32.34341231,-84.78809239,2.0,2.0,,,5,0.0,0.0,,,0,11882.0,42.952971556,43929.0,9.880491499747517
13055,Chattooga,Georgia,34.47197698,-85.34535662,1.0,3.0,4.0,,8,0.0,0.0,1.0,,1,25046.0,79.118695952,35245.0,20.689930527828796
13057,Cherokee,Georgia,34.24393976,-84.47431861,1.0,9.0,52.0,,225,0.0,0.0,1.0,,8,230629.0,603.5603742,72586.0,9.925464707387189
13059,Clarke,Georgia,33.95436462,-83.37124007,8.0,16.0,57.0,,98,0.0,0.0,8.0,,12,122037.0,1068.0392115,33116.0,32.22547260257135
13061,Clay,Georgia,31.62221166,-84.97713865,7.0,14.0,,,16,0.0,1.0,,,2,3068.0,14.774522292,22120.0,39.08083441981747
13063,Clayton,Georgia,33.54187245,-84.35594188,6.0,21.0,195.0,,456,0.0,0.0,6.0,,13,270269.0,2044.2566331,42470.0,23.800731863439758
13065,Clinch,Georgia,30.91395822,-82.70432472,1.0,1.0,3.0,,7,0.0,0.0,0.0,,0,6814.0,8.1570979007,24848.0,34.75198121514529
13067,Cobb,Georgia,33.94243204,-84.5761255,7.0,22.0,115.0,,924,0.0,1.0,2.0,,43,728388.0,2227.6706927,68818.0,11.460787382548862
13069,Coffee,Georgia,31.54892966,-82.85492059999999,3.0,9.0,53.0,,65,0.0,0.0,2.0,,3,43042.0,72.755654622,34536.0,22.345615910041356
13071,Colquitt,Georgia,31.18810588,-83.7677946,5.0,23.0,87.0,,89,0.0,1.0,5.0,,5,46002.0,83.345601713,33968.0,24.5750184774575
13073,Columbia,Georgia,33.54534185,-82.263524,3.0,10.0,40.0,,78,0.0,0.0,0.0,,0,139904.0,531.89864107,71962.0,9.452910567246112
13075,Cook,Georgia,31.16068491,-83.42947229,1.0,4.0,,,8,0.0,0.0,,,0,17103.0,75.180213791,35199.0,25.89604163012337
13077,Coweta,Georgia,33.35334302,-84.76129976,3.0,8.0,42.0,,136,0.0,0.0,2.0,,3,135625.0,330.80839942,65244.0,11.898986175115207
13079,Crawford,Georgia,32.71391813,-83.98061238,3.0,9.0,,,10,0.0,0.0,,,0,12483.0,37.911632258,40459.0,18.76952655611632
13081,Crisp,Georgia,31.92289565,-83.76811843,5.0,21.0,70.0,,88,0.0,0.0,0.0,,1,23061.0,82.890437462,31672.0,32.25792463466458
13083,Dade,Georgia,34.854916700000004,-85.50490424,1.0,2.0,,,3,1.0,1.0,,,1,16356.0,93.263758111,43463.0,15.297138664710198
13085,Dawson,Georgia,34.44244079,-84.16964071,1.0,2.0,22.0,,37,0.0,0.0,1.0,,2,22939.0,118.9737044,59265.0,13.20022668817298
13087,Decatur,Georgia,30.87967778,-84.57619536,4.0,12.0,36.0,,47,0.0,0.0,0.0,,0,27237.0,44.501432126,33514.0,25.278114329772002
13089,DeKalb,Georgia,33.76944049,-84.22396017,8.0,22.0,272.0,,1191,0.0,0.0,3.0,,15,723902.0,2825.8715707,52623.0,18.6254493011485
13091,Dodge,Georgia,32.17265114,-83.16948926,1.0,5.0,14.0,,17,0.0,0.0,0.0,,0,20995.0,41.747757656,35544.0,20.095260776375326
13093,Dooly,Georgia,32.15630737,-83.79746561,12.0,27.0,,,52,0.0,1.0,,,3,14089.0,34.908133826,33319.0,21.38547803250763
13095,Dougherty,Georgia,31.53328528,-84.21722377,7.0,64.0,507.0,,1308,2.0,6.0,29.0,,83,92326.0,277.63494602,33605.0,29.224703767086194
13097,Douglas,Georgia,33.70291126,-84.77026156,11.0,37.0,122.0,,197,0.0,1.0,5.0,,6,138283.0,726.30580653,57384.0,15.045233325860735
13099,Early,Georgia,31.32155345,-84.90255207,2.0,15.0,92.0,,141,1.0,1.0,5.0,,6,10480.0,19.990264609,28599.0,30.68702290076336
13101,Echols,Georgia,30.71101099,-82.89687287,2.0,,,,3,0.0,,,,0,4025.0,9.5145860704,35354.0,30.161490683229815
13103,Effingham,Georgia,32.36616021,-81.34280942,2.0,4.0,18.0,,25,0.0,0.0,1.0,,1,55852.0,129.88932676,62820.0,10.715820382439304
13105,Elbert,Georgia,34.11302332,-82.83936148,2.0,3.0,,,7,0.0,0.0,,,0,19394.0,54.457786813,35739.0,19.428689285345982
13107,Emanuel,Georgia,32.59221302,-82.30239915,1.0,6.0,,,9,0.0,0.0,,,0,22723.0,33.225013492,31522.0,28.451348853584474
13109,Evans,Georgia,32.15328841,-81.8870105,,,,,2,,,,,0,10733.0,58.61845002,40594.0,24.904500139755893
13111,Fannin,Georgia,34.86430205,-84.316964,3.0,8.0,9.0,,14,0.0,0.0,0.0,,0,24017.0,67.085284623,39011.0,17.745763417579216
13113,Fayette,Georgia,33.41357794,-84.49089434,4.0,10.0,26.0,,120,0.0,0.0,3.0,,5,109495.0,583.7221418,81689.0,7.09986757386182
13115,Floyd,Georgia,34.26268279,-85.21577392,3.0,6.0,27.0,,120,0.0,0.0,2.0,,6,96199.0,192.08052922,42955.0,18.910799488560173
13117,Forsyth,Georgia,34.22604035,-84.12315129999998,3.0,9.0,63.0,,153,0.0,0.0,1.0,,5,203841.0,1053.7096693,91842.0,6.389293616102747
13119,Franklin,Georgia,34.37525597,-83.23159927,4.0,5.0,7.0,,7,0.0,0.0,0.0,,0,22188.0,88.021651315,37298.0,24.454660176672075
13121,Fulton,Georgia,33.79216944,-84.46319413,3.0,6.0,111.0,,1844,0.0,0.0,2.0,,62,996757.0,1993.6122817,58851.0,16.420652175003536
13123,Gilmer,Georgia,34.69316688,-84.45802506,1.0,4.0,,,7,0.0,0.0,,,0,28956.0,72.301855514,43775.0,19.18773311230833
13125,Glascock,Georgia,33.22879932,-82.61297636,,,,,0,,,,,0,3053.0,20.8354278,43884.0,14.73960039305601
13127,Glynn,Georgia,31.23279254,-81.53811412,4.0,7.0,29.0,,41,0.0,0.0,0.0,,0,82623.0,203.11957388,46475.0,18.36897716132312
13129,Gordon,Georgia,34.50487351,-84.87296253,2.0,4.0,18.0,,46,0.0,0.0,1.0,,3,56079.0,162.11335613,41390.0,20.307066816455357
13131,Grady,Georgia,30.87454847,-84.23418364,3.0,8.0,,,21,0.0,0.0,,,1,25145.0,54.450921322,35518.0,29.17876317359316
13133,Greene,Georgia,33.5769205,-83.17139104,1.0,8.0,25.0,,34,0.0,0.0,1.0,,1,16535.0,45.654448687,44299.0,24.088297550650136
13135,Gwinnett,Georgia,33.96044201,-84.02137802,2.0,12.0,143.0,,852,0.0,0.0,1.0,,29,874242.0,2154.8583776,61865.0,12.925368490646754
13137,Habersham,Georgia,34.63331566,-83.53094677,2.0,2.0,29.0,,29,0.0,0.0,1.0,,1,43724.0,163.95762704,41600.0,17.08672582563352
13139,Hall,Georgia,34.32207823,-83.81896936,6.0,19.0,84.0,,374,0.0,0.0,0.0,,1,190482.0,514.3923541,51902.0,17.50821599941202
13141,Hancock,Georgia,33.2721566,-82.99766919,3.0,,,,5,0.0,,,,0,8747.0,17.721468341,26386.0,24.133988796158683
13143,Haralson,Georgia,33.79602175,-85.21005667,4.0,10.0,19.0,,19,0.0,0.0,1.0,,1,28667.0,104.66562084,42281.0,19.956744689015245
13145,Harris,Georgia,32.73709786,-84.90538572,1.0,5.0,19.0,,25,0.0,0.0,1.0,,1,32992.0,74.324009182,65336.0,8.250484966052376
13147,Hart,Georgia,34.34626973,-82.96567682,4.0,3.0,,,5,0.0,0.0,,,0,25518.0,112.29182638,37983.0,20.487499020299396
13149,Heard,Georgia,33.29686567,-85.12886832,1.0,1.0,3.0,,5,0.0,1.0,1.0,,1,11571.0,40.131536583,44185.0,16.679630109757152
13151,Henry,Georgia,33.4533428,-84.14814659999998,2.0,9.0,108.0,,321,0.0,0.0,2.0,,5,214171.0,722.48832395,62561.0,11.979679788580153
13153,Houston,Georgia,32.45802497,-83.66879087,1.0,9.0,64.0,,142,0.0,0.0,6.0,,9,149137.0,413.41872333,55480.0,17.709220381260184
13155,Irwin,Georgia,31.60213036,-83.27501387,3.0,5.0,11.0,,12,0.0,0.0,0.0,,0,9365.0,26.520847355,29846.0,23.67325146823278
13157,Jackson,Georgia,34.13794553,-83.56814788,2.0,12.0,27.0,,33,0.0,0.0,1.0,,1,62131.0,207.3270136,54246.0,13.407155848127344
13159,Jasper,Georgia,33.31535543,-83.68844964,2.0,2.0,6.0,,10,0.0,0.0,0.0,,0,13571.0,38.109919057,41434.0,19.784835310588754
13161,Jeff Davis,Georgia,31.80405727,-82.63724870000001,1.0,2.0,,,2,0.0,0.0,,,0,14953.0,45.416099152,36566.0,20.59118571524109
13163,Jefferson,Georgia,33.05867328,-82.41609057,2.0,4.0,,,7,0.0,0.0,,,1,16201.0,29.303907704,28417.0,27.992099253132523
13165,Jenkins,Georgia,32.79248718,-81.96040187,1.0,4.0,,,12,0.0,0.0,,,1,9055.0,24.999647224,27398.0,28.039757040309222
13167,Johnson,Georgia,32.70211082,-82.66166794,1.0,13.0,,,21,0.0,0.0,,,1,9694.0,32.037609077,32685.0,24.375902620177428
13169,Jones,Georgia,33.02512137,-83.56019163,2.0,6.0,12.0,,15,0.0,0.0,0.0,,0,28701.0,72.640748024,54020.0,13.54656632173095
13171,Lamar,Georgia,33.07841647,-84.14263877,3.0,2.0,14.0,,21,0.0,0.0,0.0,,0,18195.0,103.54187573,40364.0,20.58807364660621
13173,Lanier,Georgia,31.038285700000007,-83.06472457,4.0,5.0,,,5,0.0,0.0,,,1,10382.0,52.611184538,31682.0,27.22982084376806
13175,Laurens,Georgia,32.46325233,-82.92221316,2.0,7.0,22.0,,35,0.0,0.0,0.0,,1,47802.0,58.621547066,33632.0,27.136939876992596
13177,Lee,Georgia,31.779330600000005,-84.14324253,2.0,14.0,89.0,,264,0.0,0.0,6.0,,15,29134.0,83.634381121,62797.0,11.44367405780188
13179,Liberty,Georgia,31.82588896,-81.49251135,2.0,7.0,17.0,,26,0.0,0.0,0.0,,0,63949.0,119.07166242,42484.0,16.330200628625935
13181,Lincoln,Georgia,33.79201475,-82.45024131,1.0,3.0,6.0,,9,0.0,0.0,0.0,,0,7712.0,37.622182655,34720.0,25.142634854771785
13183,Long,Georgia,31.75218791,-81.74952375,1.0,1.0,2.0,,2,0.0,0.0,0.0,,0,17243.0,47.448361983,50848.0,16.035492663689613
13185,Lowndes,Georgia,30.83568832,-83.27056716,3.0,7.0,21.0,,75,0.0,0.0,1.0,,3,113898.0,233.97390852,38915.0,24.0882192839207
13187,Lumpkin,Georgia,34.57286511,-84.00425681,3.0,4.0,9.0,,11,0.0,0.0,0.0,,0,31094.0,116.47261993,40634.0,20.666366501575865
13189,McDuffie,Georgia,33.47851918,-82.48252774,3.0,8.0,,,30,0.0,1.0,,,2,21558.0,83.62471246,37021.0,25.684200760738474
13191,McIntosh,Georgia,31.49683595,-81.40163426,2.0,3.0,,,3,0.0,0.0,,,0,13941.0,33.244163906,45248.0,19.99856538268417
13193,Macon,Georgia,32.35207048,-84.04234127,1.0,2.0,21.0,,47,0.0,0.0,0.0,,0,13846.0,32.803205409,28285.0,28.145312725696954
13195,Madison,Georgia,34.12920917,-83.21218732,3.0,3.0,10.0,,13,0.0,1.0,1.0,,1,28362.0,105.01976724,45063.0,15.9368168676398
13197,Marion,Georgia,32.3483402,-84.52733571,3.0,10.0,,,17,0.0,0.0,,,0,8646.0,22.815884681,35484.0,24.87855655794587
13199,Meriwether,Georgia,33.04163534,-84.68859732,3.0,9.0,23.0,,26,0.0,0.0,0.0,,0,21195.0,42.033155007,34989.0,23.321538098608162
13201,Miller,Georgia,31.16568912,-84.73151117,1.0,4.0,12.0,,15,0.0,0.0,0.0,,0,5911.0,20.132932055,36463.0,24.37827778717645
13205,Mitchell,Georgia,31.22483255,-84.19381821,14.0,39.0,136.0,,172,0.0,1.0,13.0,,20,22778.0,43.330377964,31111.0,26.714373518307138
13207,Monroe,Georgia,33.014289,-83.92097166,3.0,3.0,12.0,,13,0.0,0.0,1.0,,1,27044.0,69.478880956,50625.0,12.642360597544743
13209,Montgomery,Georgia,32.17201038,-82.53527476,,,,,2,,,,,0,9005.0,38.122266924,38111.0,20.866185452526373
13211,Morgan,Georgia,33.59232073,-83.49129491,1.0,2.0,14.0,,15,0.0,0.0,0.0,,0,17943.0,54.268190664,54506.0,13.119322298389344
13213,Murray,Georgia,34.78897608,-84.74993177,5.0,10.0,,,17,0.0,0.0,,,0,39358.0,115.88302809,38136.0,18.58580212409167
13215,Muscogee,Georgia,32.50931999,-84.87142262,2.0,8.0,53.0,,177,0.0,0.0,1.0,,4,200303.0,897.07283874,42661.0,19.972741296935144
13217,Newton,Georgia,33.55514538,-83.84547140000002,3.0,5.0,40.0,,104,0.0,0.0,1.0,,3,103901.0,400.15094109,51068.0,16.761147630917893
13219,Oconee,Georgia,33.83749973,-83.43679568,5.0,11.0,33.0,,43,0.0,0.0,1.0,,0,35071.0,213.05264292,75946.0,7.085626300932394
13221,Oglethorpe,Georgia,33.878629600000004,-83.08278123,1.0,2.0,,,19,1.0,1.0,,,1,14743.0,34.286697183,44403.0,17.716882588347012
13223,Paulding,Georgia,33.91969522,-84.86848792,3.0,6.0,48.0,,117,0.0,0.0,0.0,,5,149830.0,525.29085837,60971.0,10.661416271774678
13225,Peach,Georgia,32.56934316,-83.82937,3.0,6.0,16.0,,24,0.0,0.0,2.0,,2,26907.0,181.65730499,41128.0,19.348125023228157
13227,Pickens,Georgia,34.46589159,-84.46406611,4.0,5.0,10.0,,14,0.0,1.0,2.0,,2,29992.0,137.81026386,56769.0,10.196052280608162
13229,Pierce,Georgia,31.35928155,-82.21598442,1.0,5.0,45.0,,47,0.0,0.0,2.0,,2,19030.0,56.951250805,42730.0,19.77929584866001
13231,Pike,Georgia,33.09310242,-84.38790389,2.0,9.0,,,25,0.0,0.0,,,1,17843.0,86.234276983,50819.0,11.88141007678081
13233,Polk,Georgia,34.00267074,-85.18677781,1.0,1.0,8.0,,27,0.0,0.0,0.0,,0,41263.0,136.85414441,39356.0,19.942805903594017
13235,Pulaski,Georgia,32.23334561,-83.47549959999998,2.0,4.0,9.0,,11,0.0,0.0,0.0,,1,11460.0,44.407202115,38880.0,20.43630017452007
13237,Putnam,Georgia,33.32056115,-83.37552891,3.0,5.0,,,12,0.0,0.0,,,0,21259.0,63.272846585,45762.0,17.531398466531822
13239,Quitman,Georgia,31.86728114,-85.01773177,3.0,3.0,,,3,0.0,0.0,,,1,2095.0,15.069022938,29773.0,25.68019093078759
13241,Rabun,Georgia,34.88389445,-83.40304637,2.0,6.0,,,7,0.0,0.0,,,0,16312.0,45.569208767,38277.0,21.401422265816578
13243,Randolph,Georgia,31.76622818,-84.75732369,1.0,3.0,82.0,,131,0.0,0.0,3.0,,7,7224.0,15.956153193,30358.0,27.93466223698782
13245,Richmond,Georgia,33.35777107,-82.07026432,10.0,10.0,51.0,,168,0.0,0.0,1.0,,8,201418.0,621.47267524,38595.0,24.076795519764868
13247,Rockdale,Georgia,33.65145002,-84.02202167,7.0,18.0,86.0,,107,0.0,1.0,2.0,,6,87569.0,697.88349669,51072.0,16.972901369205996
13249,Schley,Georgia,32.2654021,-84.31258912,4.0,10.0,,,13,0.0,1.0,,,1,5089.0,31.370757199,41227.0,21.8707015130674
13251,Screven,Georgia,32.74976524,-81.60779441,2.0,4.0,,,9,0.0,0.0,,,1,14114.0,21.583486661,35047.0,24.266685560436446
13253,Seminole,Georgia,30.93464824,-84.86823924,3.0,6.0,15.0,,16,0.0,0.0,1.0,,1,8696.0,35.005234803,35410.0,18.847746090156395
13255,Spalding,Georgia,33.26310031,-84.28013991,2.0,11.0,26.0,,90,0.0,0.0,2.0,,4,64006.0,337.27280528,40548.0,23.119707527419305
13257,Stephens,Georgia,34.55151201,-83.29405315,2.0,5.0,17.0,,24,0.0,0.0,0.0,,0,25584.0,145.32497495,37088.0,19.52392120075047
13259,Stewart,Georgia,32.07996777,-84.83208037,1.0,4.0,,,9,0.0,0.0,,,0,5791.0,13.512851349,20882.0,28.7687791400449
13261,Sumter,Georgia,32.03650571,-84.19821492,2.0,15.0,168.0,,273,0.0,1.0,5.0,,12,31070.0,61.575451905,33534.0,31.37753459929192
13263,Talbot,Georgia,32.69642758,-84.53351366,3.0,7.0,,,12,0.0,1.0,,,1,6373.0,16.025452299,36957.0,20.508394790522516
13265,Taliaferro,Georgia,33.56543317,-82.88136816,,,,,0,,,,,0,1904.0,8.2627862141,28152.0,31.144957983193276
13267,Tattnall,Georgia,32.04785085,-82.05539188,2.0,2.0,3.0,,5,0.0,0.0,0.0,,0,25260.0,52.807684261,35578.0,20.94220110847189
13269,Taylor,Georgia,32.55792548,-84.25077141,1.0,2.0,8.0,,9,0.0,0.0,2.0,,2,8354.0,21.341381357,27114.0,27.651424467321043
13271,Telfair,Georgia,31.92829517,-82.93491155,0.0,2.0,9.0,,11,0.0,0.0,0.0,,0,16405.0,36.303976323,27657.0,22.01158183480646
13273,Terrell,Georgia,31.77527543,-84.44069698,3.0,10.0,93.0,,135,0.0,2.0,9.0,,11,9132.0,25.64790767,30438.0,33.431887866841876
13275,Thomas,Georgia,30.86392347,-83.91847289,7.0,17.0,78.0,,92,0.0,0.0,3.0,,9,44977.0,81.614461753,38241.0,20.848433643862418
13277,Tift,Georgia,31.45743864,-83.5236119,2.0,13.0,47.0,,74,0.0,0.0,1.0,,1,40691.0,155.50308612,37613.0,26.143373227495022
13279,Toombs,Georgia,32.12059861,-82.32957247,2.0,5.0,15.0,,16,0.0,1.0,1.0,,1,27160.0,73.863713594,33081.0,26.2039764359352
13281,Towns,Georgia,34.91369188,-83.74107459999998,2.0,3.0,,,8,0.0,0.0,,,0,10976.0,71.198676956,39321.0,13.921282798833818
13283,Treutlen,Georgia,32.40422134,-82.56904553,1.0,1.0,,,1,0.0,0.0,,,0,6711.0,34.141771411,40204.0,17.6426762032484
13285,Troup,Georgia,33.03349196,-85.02812115,2.0,6.0,32.0,,68,0.0,0.0,1.0,,4,69314.0,169.16118558,42545.0,20.757711284877512
13287,Turner,Georgia,31.71612656,-83.62069378,1.0,2.0,20.0,,41,0.0,0.0,0.0,,1,8151.0,27.721010075,34667.0,26.46301067353699
13289,Twiggs,Georgia,32.67435595,-83.43078662,2.0,2.0,2.0,,3,0.0,0.0,0.0,,0,8363.0,22.791337643,31625.0,29.94140858543585
13291,Union,Georgia,34.82995757,-83.98967069,1.0,7.0,,,8,0.0,1.0,,,1,22033.0,74.517502401,41686.0,12.80806063631825
13293,Upson,Georgia,32.87920671,-84.30024826,5.0,13.0,135.0,,135,0.0,0.0,5.0,,5,26394.0,81.043890723,35699.0,22.391452602864288
13295,Walker,Georgia,34.73376362,-85.30165174,3.0,6.0,,,13,0.0,0.0,,,0,68143.0,155.49176487,41539.0,18.010654065714746
13297,Walton,Georgia,33.78017694,-83.73552314,2.0,14.0,39.0,,52,0.0,0.0,2.0,,3,87436.0,286.12603538,54459.0,12.998078594629215
13299,Ware,Georgia,31.05449097,-82.42224148,5.0,18.0,64.0,,66,0.0,3.0,4.0,,4,35671.0,39.680920231,34705.0,26.099632754898938
13301,Warren,Georgia,33.41146451,-82.67795848,4.0,6.0,,,8,0.0,0.0,,,0,5504.0,18.466163888,31875.0,26.017441860465116
13303,Washington,Georgia,32.96711864,-82.79357039,2.0,4.0,21.0,,22,0.0,0.0,0.0,,0,20680.0,30.045090206,37417.0,24.158607350096712
13305,Wayne,Georgia,31.5521809,-81.91894878,3.0,6.0,,,6,0.0,0.0,,,0,30006.0,46.434429869,39908.0,18.942878091048456
13307,Webster,Georgia,32.04066113,-84.54742852,1.0,3.0,,,3,0.0,0.0,,,0,2672.0,12.471546108,37072.0,22.305389221556887
13309,Wheeler,Georgia,32.12009104,-82.72574721,1.0,1.0,,,3,0.0,0.0,,,0,7932.0,26.664225716,27779.0,17.4357034795764
13311,White,Georgia,34.64624278,-83.74905525,1.0,3.0,11.0,,14,0.0,0.0,0.0,,0,28140.0,124.48941848,42264.0,18.994314143567873
13313,Whitfield,Georgia,34.80987459,-84.96093476,2.0,6.0,17.0,,31,0.0,0.0,1.0,,3,103653.0,358.29394249,41764.0,19.416707668856667
13315,Wilcox,Georgia,31.97496928,-83.43438555,2.0,5.0,,,29,0.0,0.0,,,0,8884.0,23.323844964,34071.0,16.0063034669068
13317,Wilkes,Georgia,33.78290391,-82.74286107,1.0,3.0,6.0,,8,0.0,0.0,0.0,,0,9924.0,21.035108429,33462.0,26.400644901249496
13319,Wilkinson,Georgia,32.80291082,-83.17140684,2.0,8.0,,,14,0.0,0.0,,,1,9312.0,20.115117067,38827.0,20.564862542955325
13321,Worth,Georgia,31.55162306,-83.85090513,4.0,10.0,64.0,,104,0.0,1.0,3.0,,4,20988.0,35.567841101,38684.0,18.281875357347054
15001,Hawaii,Hawaii,19.60121157,-155.5210167,0.0,0.0,10.0,,41,0.0,0.0,0.0,,0,193680.0,49.890897575,53936.0,18.451569599339116
15003,Honolulu,Hawaii,21.45803166,-157.97121819999995,2.0,5.0,68.0,,369,0.0,0.0,0.0,,6,986999.0,1631.932667,77161.0,9.154923155950513
15005,Kalawao,Hawaii,21.17882515,-156.9583592,,,,,0,,,,,0,91.0,7.3385877204,65625.0,12.087912087912088
15007,Kauai,Hawaii,22.03935037,-159.5966786,2.0,3.0,12.0,,21,0.0,0.0,0.0,,0,70447.0,116.36530521,68224.0,9.514954504805031
15009,Maui,Hawaii,20.86399628,-156.56890969999995,3.0,9.0,36.0,,92,0.0,0.0,0.0,,3,162456.0,143.95409023,68777.0,9.705397153690846
16001,Ada,Idaho,43.4526575,-116.24155159999998,3.0,13.0,312.0,,538,0.0,0.0,3.0,,9,425798.0,446.73232225,58099.0,12.001230630486756
16003,Adams,Idaho,44.89333571,-116.4545247,1.0,1.0,,,1,0.0,0.0,,,0,3865.0,3.1185676561,41335.0,14.514877102199224
16005,Bannock,Idaho,42.67002716,-112.2233311,2.0,4.0,5.0,,5,0.0,0.0,0.0,,0,83815.0,78.3273294,45216.0,17.747419912903418
16007,Bear Lake,Idaho,42.28269683,-111.32892379999998,,,,,0,,,,,0,5928.0,6.2005001049,46863.0,14.288124156545209
16009,Benewah,Idaho,47.21754179,-116.6586851,,,,,0,,,,,0,9068.0,11.874922779,42600.0,16.651962946625495
16011,Bingham,Idaho,43.21672879999999,-112.3978437,2.0,1.0,2.0,,2,0.0,0.0,0.0,,0,45261.0,22.082458928,49943.0,13.274121208104107
16013,Blaine,Idaho,43.4085812,-113.9752658,4.0,35.0,256.0,,458,0.0,0.0,2.0,,5,21427.0,8.5683261132,58086.0,12.633593130162879
16015,Boise,Idaho,43.98829931,-115.7309284,,,,,0,,,,,0,6891.0,4.0188345213,44591.0,13.61195762588884
16017,Bonner,Idaho,48.29996017,-116.6017932,1.0,3.0,,,4,0.0,0.0,,,0,41389.0,25.805849478,43697.0,14.718886660706952
16019,Bonneville,Idaho,43.38713372,-111.6161537,2.0,6.0,,,16,0.0,0.0,,,0,108989.0,62.623318259,52831.0,12.580168640872015
16021,Boundary,Idaho,48.76684761,-116.4630179,,,,,0,,,,,0,11141.0,9.4176452008,39279.0,16.2732250246836
16023,Butte,Idaho,43.72592209,-113.1735463,,,,,0,,,,,0,2592.0,1.1674560255,39653.0,15.277777777777779
16025,Camas,Idaho,43.46665742,-114.8065892,1.0,1.0,,,1,0.0,0.0,,,0,968.0,1.0491193807,42708.0,19.834710743801654
16027,Canyon,Idaho,43.61970148,-116.7095499,5.0,22.0,114.0,,167,0.0,1.0,3.0,,5,202782.0,380.71931864,44860.0,18.426684814234005
16029,Caribou,Idaho,42.77149116,-111.5597683,1.0,1.0,,,1,0.0,0.0,,,0,6813.0,4.0018279352,57957.0,9.980918831645385
16031,Cassia,Idaho,42.28347888,-113.6012409,1.0,1.0,7.0,,10,0.0,1.0,1.0,,1,23441.0,9.3014963307,46215.0,15.1998634870526
16033,Clark,Idaho,44.28496071,-112.3505704,,,,,0,,,,,0,960.0,0.4832274056,32422.0,27.083333333333332
16035,Clearwater,Idaho,46.67459924,-115.6622393,,,,,0,,,,,0,8528.0,3.5640549689,40266.0,11.397748592870544
16037,Custer,Idaho,44.24186819,-114.2855494,1.0,2.0,2.0,,2,0.0,0.0,0.0,,0,4185.0,0.8695339893,39497.0,20.3584229390681
16039,Elmore,Idaho,43.3507101,-115.4701578,10.0,14.0,,,18,0.0,0.0,,,0,26103.0,8.8644880876,44444.0,17.572692793931733
16041,Franklin,Idaho,42.18332217,-111.8149666,,,,,0,,,,,0,13013.0,20.702273988,50500.0,12.341504649196956
16043,Fremont,Idaho,44.22800938,-111.4809943,0.0,1.0,2.0,,2,0.0,0.0,0.0,,0,12896.0,7.0645306185,49973.0,11.437655086848634
16045,Gem,Idaho,44.06482372,-116.398376,5.0,7.0,,,9,0.0,0.0,,,0,16853.0,31.502246134,40767.0,21.984216459977453
16047,Gooding,Idaho,42.96927962,-114.8108306,1.0,5.0,,,5,0.0,0.0,,,0,15157.0,20.835815865,40704.0,15.491192188427789
16049,Idaho,Idaho,45.84721541,-115.4634436,1.0,2.0,3.0,,3,0.0,0.0,0.0,,0,16251.0,1.9478645565,38597.0,15.605193526552211
16051,Jefferson,Idaho,43.82078483,-112.3131749,2.0,3.0,4.0,,4,0.0,0.0,0.0,,0,27096.0,26.917387465,54646.0,11.156628284617655
16053,Jerome,Idaho,42.68891267,-114.2655033,11.0,19.0,,,30,0.0,0.0,,,2,22694.0,40.19438733,44447.0,16.682823653829207
16055,Kootenai,Idaho,47.67282258,-116.7020872,6.0,11.0,43.0,,45,0.0,0.0,0.0,,0,147716.0,130.47962803,50924.0,12.4644588263966
16057,Latah,Idaho,46.81587887,-116.7113698,1.0,3.0,,,3,0.0,0.0,,,0,38593.0,37.303861978,42133.0,20.54517658642759
16059,Lemhi,Idaho,44.9438088,-113.9309747,,,,,0,,,,,0,7743.0,1.7444205376,34762.0,16.582719876017048
16061,Lewis,Idaho,46.23315327,-116.434146,0.0,0.0,,,0,0.0,0.0,,,0,3826.0,8.0635475669,38068.0,15.6299006795609
16063,Lincoln,Idaho,43.0012336,-114.1358773,3.0,9.0,,,15,0.0,0.0,,,0,5292.0,4.461596501,44500.0,11.904761904761905
16065,Madison,Idaho,43.78141028,-111.65384740000002,1.0,2.0,4.0,,5,0.0,0.0,0.0,,0,38114.0,83.756127885,33856.0,32.07745185496143
16067,Minidoka,Idaho,42.85518524,-113.6357257,1.0,3.0,,,6,0.0,0.0,,,0,20331.0,27.510054185,46147.0,17.62825242240913
16069,Nez Perce,Idaho,46.32638236,-116.7500975,4.0,13.0,19.0,,20,1.0,2.0,5.0,,9,39995.0,47.632942679,49541.0,13.166645830728841
16071,Oneida,Idaho,42.19494279999999,-112.5407838,,,,,0,,,,,0,4269.0,3.7432715815,40564.0,13.633169360505974
16073,Owyhee,Idaho,42.58016894,-116.1693871,1.0,2.0,,,4,0.0,0.0,,,0,11356.0,1.5248677378,34785.0,23.27404015498415
16075,Payette,Idaho,44.00545243,-116.7647695,1.0,5.0,9.0,,9,0.0,0.0,1.0,,1,22773.0,57.880182569,45670.0,18.438501734510165
16077,Power,Idaho,42.69254894,-112.83957420000002,2.0,,,,2,0.0,,,,0,7696.0,5.5334494575,46318.0,12.175155925155925
16079,Shoshone,Idaho,47.35364087,-115.8916749,,,,,0,,,,,0,12551.0,4.8517023162,37449.0,17.59222372719305
16081,Teton,Idaho,43.75303583,-111.2056773,1.0,2.0,3.0,,6,0.0,0.0,0.0,,0,10437.0,25.919030913,58173.0,12.29280444572195
16083,Twin Falls,Idaho,42.35440512,-114.6685381,1.0,2.0,53.0,,79,0.0,0.0,1.0,,7,80955.0,44.793888497,45500.0,15.338150824532148
16085,Valley,Idaho,44.76728382,-115.5676773,1.0,2.0,2.0,,2,0.0,0.0,0.0,,0,9897.0,3.0124555417,53630.0,13.832474487218349
16087,Washington,Idaho,44.45275475,-116.7847688,1.0,1.0,,,1,0.0,0.0,,,0,10035.0,6.993827992,37525.0,15.02740408570005
17001,Adams,Illinois,39.98815591,-91.18786813,1.0,2.0,1.0,,27,0.0,0.0,0.0,,0,66949.0,76.818914184,48065.0,12.63200346532435
17003,Alexander,Illinois,37.18049267,-89.32910838,,,,,0,,,,,0,7051.0,25.730173457,29071.0,32.39256843000993
17005,Bond,Illinois,38.88829622,-89.43534887,3.0,3.0,,,4,0.0,0.0,,,0,17137.0,43.724157294,52159.0,14.897590009920057
17007,Boone,Illinois,42.32359279,-88.82345779,7.0,13.0,,,16,1.0,1.0,,,1,53656.0,190.82679706,60063.0,11.010884150887133
17009,Brown,Illinois,39.96209138,-90.75068024,,,,,0,,,,,0,6836.0,21.447348086,52500.0,8.645406670567583
17011,Bureau,Illinois,41.40385234,-89.5283051,1.0,3.0,7.0,,7,0.0,0.0,0.0,,0,33822.0,37.962968618,51425.0,12.831884572171958
17013,Calhoun,Illinois,39.16840183,-90.66330078,1.0,1.0,,,1,0.0,0.0,,,0,4962.0,18.918568778,52949.0,11.991132607819427
17015,Carroll,Illinois,42.06823429,-89.93395545,3.0,4.0,,,5,1.0,1.0,,,1,14793.0,32.158661449,50052.0,11.241803555735821
17017,Cass,Illinois,39.96991073,-90.24734436,,,,,0,,,,,0,13068.0,32.627972676,48887.0,13.674625038261402
17019,Champaign,Illinois,40.13919438,-88.20046615,1.0,4.0,55.0,,90,0.0,0.0,0.0,,2,206420.0,210.80333873,48899.0,19.94041275070245
17021,Christian,Illinois,39.54581621,-89.27780482,1.0,12.0,23.0,,24,0.0,0.0,3.0,,3,33888.0,46.034343599,47417.0,12.854107648725213
17023,Clark,Illinois,39.33425789,-87.78705622,2.0,3.0,,,4,0.0,0.0,,,0,16089.0,31.103108681,48693.0,16.010939150972714
17025,Clay,Illinois,38.75388572,-88.48914513,,,,,1,,,,,0,13466.0,28.3019997,45984.0,13.768008317243428
17027,Clinton,Illinois,38.60704876,-89.42385254,3.0,4.0,10.0,,39,0.0,0.0,0.0,,0,37858.0,79.406522494,63929.0,8.996777431454381
17029,Coles,Illinois,39.51949084,-88.22358557,0.0,0.0,0.0,,9,0.0,0.0,0.0,,0,52802.0,100.11061526,38800.0,20.28521646907314
17031,Cook,Illinois,41.84144849,-87.81658794,1.0,2.0,2.0,40.0,17306,0.0,0.0,0.0,0.0,630,5227575.0,5482.3791333,56902.0,16.387751490892047
17033,Crawford,Illinois,39.0032229,-87.75954624,1.0,4.0,,,4,0.0,0.0,,,0,19441.0,42.395006748,47364.0,11.275140167686848
17035,Cumberland,Illinois,39.27432424,-88.2401158,1.0,1.0,1.0,,2,0.0,0.0,0.0,,0,10890.0,31.244203529,44281.0,16.042240587695133
17037,DeKalb,Illinois,41.89373302,-88.76958483,1.0,4.0,32.0,,37,0.0,0.0,1.0,,1,104458.0,164.95438333,56076.0,17.232763407302457
17039,De Witt,Illinois,40.17514519,-88.90959682,3.0,1.0,,,1,0.0,0.0,,,0,16322.0,39.665258788,53510.0,11.800024506800638
17041,Douglas,Illinois,39.76768052,-88.21854195,1.0,9.0,11.0,,11,0.0,0.0,0.0,,0,19770.0,46.749820314,52984.0,11.244309559939301
17043,DuPage,Illinois,41.85116968,-88.08642662,45.0,95.0,448.0,,1386,0.0,0.0,14.0,,66,930514.0,2833.4235729,81521.0,6.950674573407816
17045,Edgar,Illinois,39.6809186,-87.74759563,,,,,0,,,,,0,17828.0,27.847975105,46440.0,15.958043527036123
17047,Edwards,Illinois,38.41353228,-88.05720863,,,,,0,,,,,0,6612.0,28.738579549,47035.0,11.494252873563218
17049,Effingham,Illinois,39.05935711,-88.58969584,1.0,3.0,,,3,0.0,1.0,,,1,34356.0,71.451959261,52977.0,10.57748282687158
17051,Fayette,Illinois,39.00072038,-89.02452658,2.0,3.0,,,12,0.0,0.0,,,1,22025.0,29.889909731,44745.0,14.7105561861521
17053,Ford,Illinois,40.59706922,-88.22350769,1.0,3.0,,,4,0.0,1.0,,,1,13758.0,27.314837057,49257.0,13.599360372147114
17055,Franklin,Illinois,37.99189086,-88.92567818,1.0,1.0,4.0,,4,0.0,0.0,0.0,,0,39503.0,94.641920134,39507.0,18.834012606637472
17057,Fulton,Illinois,40.47289135,-90.20862357,1.0,,,,1,0.0,,,,0,36047.0,40.249428208,46183.0,14.514383998668405
17059,Gallatin,Illinois,37.76430935,-88.22953869,1.0,2.0,,,2,0.0,0.0,,,0,5325.0,15.65992834,41269.0,16.150234741784036
17061,Greene,Illinois,39.35907414,-90.388865,1.0,,,,1,0.0,,,,0,13390.0,24.021213472,42880.0,16.803584764749814
17063,Grundy,Illinois,41.28569601,-88.41905692,2.0,5.0,21.0,,24,0.0,0.0,0.0,,0,50338.0,121.91691262,67162.0,9.732210258651516
17065,Hamilton,Illinois,38.08163641,-88.53883373,,,,,0,,,,,0,8251.0,18.7813245,45076.0,14.773966791904012
17067,Hancock,Illinois,40.40423981,-91.16313899,1.0,,,,3,0.0,,,,0,18633.0,22.481515074,50077.0,11.39913057478667
17069,Hardin,Illinois,37.51810645,-88.26873022,,,,,0,,,,,0,4173.0,22.031620431,39926.0,18.547807332854063
17071,Henderson,Illinois,40.81908672,-90.92491462,,,,,0,,,,,0,6966.0,17.711706446,46216.0,10.493827160493828
17073,Henry,Illinois,41.3533994,-90.13296166,2.0,8.0,25.0,,25,0.0,0.0,0.0,,0,49681.0,59.647671783,54757.0,12.115295585837645
17075,Iroquois,Illinois,40.74717633,-87.82466784,2.0,5.0,11.0,,11,0.0,0.0,0.0,,0,28814.0,24.703647459,47823.0,15.811758173110293
17077,Jackson,Illinois,37.78595185,-89.38232563,1.0,2.0,14.0,,39,0.0,0.0,1.0,,4,59188.0,98.308103055,33845.0,26.24349530310198
17079,Jasper,Illinois,39.01054275,-88.15437049,3.0,3.0,,,3,0.0,1.0,,,1,9592.0,19.431324136,56305.0,8.079649708090075
17081,Jefferson,Illinois,38.29980057,-88.9240025,3.0,8.0,,,9,0.0,0.0,,,0,38523.0,66.210686996,43467.0,16.592684889546504
17083,Jersey,Illinois,39.08869046,-90.35393073,3.0,6.0,,,8,0.0,0.0,,,0,22441.0,59.160169001,52738.0,8.707276859319995
17085,Jo Daviess,Illinois,42.36542373,-90.21094405,1.0,1.0,10.0,,11,0.0,0.0,0.0,,0,22186.0,35.556314567,54702.0,9.244568646894438
17087,Johnson,Illinois,37.45939802,-88.88165419,,,,,2,,,,,0,12866.0,36.217156675,44179.0,10.593813150940463
17089,Kane,Illinois,41.93842729,-88.42861412,3.0,6.0,100.0,,463,0.0,0.0,6.0,,24,526615.0,1028.6060487,71602.0,10.8830929616513
17091,Kankakee,Illinois,41.13746989,-87.86205334,3.0,27.0,85.0,,226,0.0,0.0,4.0,,10,111493.0,162.63764334,54697.0,15.068210560304234
17093,Kendall,Illinois,41.59081014,-88.42869583,4.0,8.0,55.0,,116,0.0,0.0,2.0,,2,121452.0,399.41059069,85736.0,5.416131475809373
17095,Knox,Illinois,40.93148779,-90.21330340000002,1.0,1.0,,,2,0.0,0.0,,,0,51752.0,69.945908011,40605.0,16.266038027515844
17097,Lake,Illinois,42.3224907,-88.00367925,3.0,37.0,343.0,,1711,0.0,0.0,1.0,,62,702890.0,1578.6585506,79886.0,8.630653445062528
17099,LaSalle,Illinois,41.34426129999999,-88.88633881,2.0,3.0,11.0,,24,0.0,0.0,1.0,,1,111935.0,96.398357938,51684.0,13.462277214454817
17101,Lawrence,Illinois,38.71987914,-87.72884035,2.0,,,,2,0.0,,,,0,16582.0,42.358750189,42650.0,11.633096128331927
17103,Lee,Illinois,41.74583951,-89.29977132,6.0,14.0,,,15,0.0,0.0,,,0,34718.0,47.214327473,55067.0,10.896364997983754
17105,Livingston,Illinois,40.89188292,-88.55784752,1.0,3.0,14.0,,17,0.0,0.0,0.0,,0,37278.0,34.266082198,54074.0,11.706636622136381
17107,Logan,Illinois,40.12581572,-89.36638784,0.0,1.0,4.0,,4,0.0,0.0,0.0,,0,29820.0,46.798858946,52676.0,10.046948356807512
17109,McDonough,Illinois,40.45674722,-90.67775541,2.0,,,,2,0.0,,,,0,31727.0,50.82221616,41484.0,20.528256689885588
17111,McHenry,Illinois,42.32451172,-88.45248227,2.0,6.0,52.0,,264,0.0,0.0,2.0,,11,307083.0,511.37894382,79836.0,7.702477831726276
17113,McLean,Illinois,40.48996987,-88.84621113,7.0,14.0,65.0,,82,1.0,1.0,2.0,,2,173254.0,146.06419548,63420.0,13.555242591801631
17115,Macon,Illinois,39.86064913,-88.96342505,2.0,9.0,,,44,0.0,0.0,,,5,108404.0,180.35890904,47477.0,18.104497989004095
17117,Macoupin,Illinois,39.26119767,-89.92424028,7.0,14.0,,,17,0.0,0.0,,,0,46482.0,52.511250512,52337.0,12.639301234886624
17119,Madison,Illinois,38.83042506,-89.90422563,2.0,8.0,52.0,,135,0.0,0.0,0.0,,2,266759.0,369.33346345,54573.0,12.895534921033592
17121,Marion,Illinois,38.64963204,-88.91899208,3.0,4.0,,,17,0.0,0.0,,,0,38503.0,65.717417091,43427.0,17.834973898137807
17123,Marshall,Illinois,41.0327901,-89.34510444,1.0,1.0,1.0,,2,0.0,0.0,0.0,,0,12060.0,29.817257811,54189.0,9.643449419568823
17125,Mason,Illinois,40.23917274,-89.91824452,3.0,3.0,,,3,0.0,0.0,,,0,13931.0,25.152704983,43125.0,15.181968272198693
17127,Massac,Illinois,37.22078441,-88.71036614,2.0,2.0,,,4,0.0,0.0,,,0,14883.0,59.354741413,42706.0,18.477457501847745
17129,Menard,Illinois,40.02742725,-89.80246001,1.0,2.0,,,2,0.0,0.0,,,0,12576.0,39.079072811,60420.0,12.436386768447838
17131,Mercer,Illinois,41.20596782,-90.74290052,2.0,2.0,,,3,0.0,0.0,,,0,15971.0,27.799427286,55750.0,10.130862187715234
17133,Monroe,Illinois,38.27594376,-90.17761038,3.0,3.0,43.0,,49,0.0,0.0,1.0,,4,33703.0,89.113618043,72956.0,4.3913004777022815
17135,Montgomery,Illinois,39.23198845,-89.47809254,2.0,3.0,,,9,0.0,1.0,,,1,29301.0,40.64651772,45173.0,12.712876693628203
17137,Morgan,Illinois,39.71654544,-90.20255104,4.0,6.0,10.0,,10,1.0,1.0,1.0,,1,34801.0,59.732971225,47760.0,13.45938335105313
17139,Moultrie,Illinois,39.64187451,-88.62099969,1.0,3.0,,,2,0.0,0.0,,,0,14915.0,43.806241691,51432.0,11.86054307743882
17141,Ogle,Illinois,42.04165196,-89.32184679,5.0,16.0,,,28,0.0,0.0,,,1,52034.0,67.128381709,55832.0,10.79486489602952
17143,Peoria,Illinois,40.78702156,-89.76078901,3.0,4.0,14.0,,33,0.0,0.0,1.0,,1,186818.0,291.94960348,51632.0,16.053592266269845
17145,Perry,Illinois,38.08510853,-89.36856219,1.0,,,,1,0.0,,,,0,21595.0,47.930801838,43308.0,14.364436212086131
17147,Piatt,Illinois,40.01360584,-88.59319339,3.0,6.0,,,6,0.0,0.0,,,0,16469.0,37.3355559,69160.0,5.628757058716376
17149,Pike,Illinois,39.62265059,-90.8877017,1.0,1.0,,,1,0.0,0.0,,,0,16054.0,18.776680446,40157.0,13.909306091939703
17151,Pope,Illinois,37.41391284,-88.56152109,,,,,0,,,,,0,4255.0,11.421755905,39243.0,14.195064629847238
17153,Pulaski,Illinois,37.22631423,-89.13085001,5.0,,,,5,0.0,,,,0,5792.0,27.426726677,32538.0,18.1457182320442
17155,Putnam,Illinois,41.2013541,-89.2869272,,,,,0,,,,,0,5746.0,35.852413048,64085.0,10.355029585798816
17157,Randolph,Illinois,38.05095369,-89.82512254,12.0,31.0,,,46,0.0,0.0,,,0,32934.0,55.8058947,48343.0,9.774093641829113
17159,Richland,Illinois,38.71240969,-88.08475366,1.0,,,,1,0.0,,,,0,16072.0,43.779449927,45597.0,14.379044300647088
17161,Rock Island,Illinois,41.46613806,-90.57042164,3.0,11.0,80.0,,138,0.0,0.0,3.0,,4,146536.0,335.69746481,50208.0,14.586859201834361
17163,St. Clair,Illinois,38.46996033,-89.93063427,3.0,4.0,55.0,,225,0.0,0.0,2.0,,10,265569.0,396.90992327,50006.0,17.343515244625692
17165,Saline,Illinois,37.75332999,-88.54119706,1.0,2.0,,,3,0.0,0.0,,,0,24659.0,62.929083064,40290.0,21.631047487732673
17167,Sangamon,Illinois,39.75836914,-89.65872023,4.0,5.0,20.0,,50,1.0,1.0,2.0,,4,198639.0,224.97846453,56742.0,14.901404054591495
17169,Schuyler,Illinois,40.1571798,-90.61114163,1.0,,,,1,0.0,,,,0,7205.0,15.795903816,48396.0,19.58362248438584
17171,Scott,Illinois,39.6429169,-90.47814431,,,,,0,,,,,0,5169.0,19.632315943,46210.0,14.451538015089959
17173,Shelby,Illinois,39.39133527,-88.80611122,4.0,,,,4,0.0,,,,0,22011.0,28.662608462,48572.0,12.766344100676934
17175,Stark,Illinois,41.09309773,-89.79745866,1.0,,,,1,0.0,,,,0,5840.0,18.842032885,52058.0,13.150684931506849
17177,Stephenson,Illinois,42.35129217,-89.662598,1.0,3.0,8.0,,9,0.0,0.0,0.0,,0,46283.0,79.269713769,45624.0,15.56294967914785
17179,Tazewell,Illinois,40.50716185,-89.51404662,4.0,13.0,21.0,,21,0.0,0.0,3.0,,3,135400.0,204.70876585,60178.0,7.7437223042836045
17181,Union,Illinois,37.47119609,-89.25548938,,,,,3,,,,,0,17458.0,40.731884338,45464.0,15.276663993584602
17183,Vermilion,Illinois,40.18417171,-87.73384359,5.0,7.0,,,8,0.0,0.0,,,0,79613.0,85.502455014,43552.0,18.957959127278208
17185,Wabash,Illinois,38.44272901,-87.84922065,2.0,1.0,,,1,0.0,0.0,,,0,11587.0,51.726826921,46871.0,11.875377578320531
17187,Warren,Illinois,40.84925021,-90.6147432,2.0,,,,2,0.0,,,,0,17611.0,31.402555743,44067.0,14.38305604451763
17189,Washington,Illinois,38.35309213,-89.40982703,1.0,1.0,2.0,,3,0.0,0.0,0.0,,0,14369.0,24.876731103,54936.0,10.995893938339481
17191,Wayne,Illinois,38.42955355,-88.42586459,,,,,0,,,,,0,16517.0,22.877699676,46903.0,15.450747714475995
17193,White,Illinois,38.08706198,-88.17657461,,,,,0,,,,,0,14410.0,27.617957203,43678.0,13.601665510062457
17195,Whiteside,Illinois,41.75509713,-89.91556058,1.0,1.0,18.0,,29,0.0,0.0,1.0,,3,57155.0,81.296707896,49151.0,11.17662496719447
17197,Will,Illinois,41.44619267,-87.97862712,9.0,40.0,582.0,,1433,1.0,2.0,11.0,,81,685378.0,828.23765369,77507.0,7.5835524338394285
17199,Williamson,Illinois,37.73033511,-88.92994027,1.0,1.0,3.0,,12,0.0,0.0,0.0,,0,67336.0,159.58846287,45902.0,14.441012237139123
17201,Winnebago,Illinois,42.33641854,-89.16085327,4.0,7.0,42.0,,112,0.0,0.0,1.0,,4,288896.0,553.52649088,49468.0,15.260162826761187
17203,Woodford,Illinois,40.78579374,-89.20973757,1.0,2.0,3.0,,11,0.0,0.0,0.0,,0,39123.0,72.876836812,68040.0,7.519873220356312
18001,Adams,Indiana,40.7457653,-84.93671406,1.0,1.0,1.0,,6,0.0,0.0,0.0,,1,34813.0,105.11214021,47572.0,17.637089592968145
18003,Allen,Indiana,41.09194313,-85.06800636,4.0,23.0,90.0,,180,1.0,1.0,6.0,,15,365565.0,571.03214082,49574.0,14.920739129840111
18005,Bartholomew,Indiana,39.20744865,-85.89558181,1.0,5.0,45.0,,113,0.0,0.0,0.0,,4,80203.0,203.36755486,55874.0,12.437190628779472
18007,Benton,Indiana,40.60626947,-87.31093999,0.0,0.0,,,3,0.0,0.0,,,0,8709.0,21.290913819,48069.0,12.584682512343553
18009,Blackford,Indiana,40.47388153,-85.32499702,4.0,5.0,,,6,0.0,0.0,,,1,12364.0,72.267276141,38791.0,11.70333225493368
18011,Boone,Indiana,40.0509304,-86.46841646,1.0,1.0,13.0,,129,0.0,0.0,0.0,,4,61884.0,158.42304178,72774.0,6.009630922370888
18013,Brown,Indiana,39.19605589,-86.22868909,2.0,3.0,12.0,,14,0.0,0.0,1.0,,1,14965.0,48.828880761,56323.0,12.576010691613766
18015,Carroll,Indiana,40.580783200000006,-86.56198812,2.0,3.0,,,6,0.0,0.0,,,1,20007.0,54.072338585,54140.0,10.691258059679113
18017,Cass,Indiana,40.76135835,-86.34830753,2.0,15.0,,,33,0.0,0.0,,,1,38324.0,92.08911518,43918.0,14.716626656925165
18019,Clark,Indiana,38.48015445,-85.70510334,4.0,12.0,71.0,,137,0.0,0.0,4.0,,9,113993.0,314.76825469,51844.0,9.783934101216742
18021,Clay,Indiana,39.39561833,-87.11723506,1.0,7.0,,,13,0.0,0.0,,,0,26568.0,73.180587127,49735.0,16.403191809695876
18023,Clinton,Indiana,40.30319754,-86.47277257,1.0,4.0,13.0,,13,0.0,0.0,1.0,,1,32692.0,79.616417091,50096.0,12.394469595007953
18025,Crawford,Indiana,38.28814402,-86.44518825,1.0,5.0,,,12,0.0,0.0,,,0,10582.0,34.546925309,41173.0,19.22131922131922
18027,Daviess,Indiana,38.70186039,-87.07185406,8.0,12.0,,,21,1.0,1.0,,,1,32583.0,77.177550808,47939.0,13.286069422705092
18029,Dearborn,Indiana,39.14647946,-84.97333539,8.0,22.0,60.0,,61,1.0,1.0,3.0,,4,49552.0,162.47661139,60834.0,9.15603810138844
18031,Decatur,Indiana,39.30712658,-85.50087166,30.0,59.0,127.0,,155,0.0,3.0,10.0,,13,26340.0,71.917114532,51185.0,12.813211845102506
18033,DeKalb,Indiana,41.39804622,-84.99906934,1.0,3.0,60.0,,6,0.0,0.0,0.0,,1,42489.0,119.13484501,50398.0,12.678575631339877
18035,Delaware,Indiana,40.22787247,-85.39732772,4.0,14.0,46.0,,77,1.0,1.0,1.0,,4,116463.0,292.70878533,39537.0,20.60311000060105
18037,Dubois,Indiana,38.36597551,-86.87924170000002,1.0,3.0,10.0,,14,0.0,0.0,0.0,,0,42345.0,99.621177565,55154.0,8.371708584248436
18039,Elkhart,Indiana,41.59761169,-85.85875695,5.0,12.0,56.0,,105,0.0,0.0,3.0,,3,201640.0,443.81142732,49692.0,14.571017655227138
18041,Fayette,Indiana,39.63684962,-85.17797541,1.0,3.0,16.0,,20,0.0,0.0,3.0,,3,23608.0,107.18492865,40851.0,18.94273127753304
18043,Floyd,Indiana,38.32117957,-85.90385377,5.0,6.0,41.0,,116,0.0,0.0,0.0,,5,76290.0,525.67209357,57494.0,11.862629440293617
18045,Fountain,Indiana,40.12361933,-87.24217689,1.0,2.0,3.0,,3,0.0,1.0,1.0,,1,16741.0,41.325297252,45924.0,12.430559703721402
18047,Franklin,Indiana,39.4142482,-85.06062647,2.0,13.0,53.0,,75,0.0,1.0,6.0,,7,22887.0,59.142002953,52128.0,11.320837156464368
18049,Fulton,Indiana,41.0469907,-86.26252745,1.0,2.0,3.0,,3,0.0,0.0,0.0,,0,20412.0,54.538843844,46310.0,13.854595336076818
18051,Gibson,Indiana,38.30393723,-87.58054938,4.0,4.0,4.0,,4,0.0,0.0,0.0,,0,33684.0,68.630312189,49669.0,10.717254482840518
18053,Grant,Indiana,40.51587228,-85.65468702,3.0,7.0,22.0,,41,0.0,0.0,2.0,,2,68269.0,159.23477738,40272.0,17.845581449852787
18055,Greene,Indiana,39.03630547,-86.96223202,0.0,1.0,12.0,,28,0.0,0.0,0.0,,2,32633.0,59.000786319,45153.0,14.739680691324732
18057,Hamilton,Indiana,40.07306535,-86.05244729,2.0,25.0,220.0,,510,0.0,0.0,4.0,,27,303042.0,837.08286354,87782.0,5.075534084384342
18059,Hancock,Indiana,39.82304555,-85.77566351,1.0,1.0,26.0,,129,0.0,0.0,2.0,,6,71955.0,249.54966506,68449.0,7.3295809881175735
18061,Harrison,Indiana,38.19467379,-86.10948271,14.0,23.0,58.0,,59,0.0,1.0,2.0,,2,39370.0,83.279062722,52926.0,13.053086106172213
18063,Hendricks,Indiana,39.76719009,-86.51037283,2.0,3.0,28.0,,360,0.0,0.0,2.0,,12,155817.0,410.44889594,73042.0,5.027692742126982
18065,Henry,Indiana,39.93029017,-85.39625719,1.0,11.0,23.0,,23,0.0,0.0,1.0,,1,48953.0,123.17908961,44509.0,15.012358793128103
18067,Howard,Indiana,40.48527731,-86.11351892,1.0,5.0,14.0,,60,0.0,0.0,1.0,,4,82728.0,281.1124524,45928.0,16.517986655062373
18069,Huntington,Indiana,40.82907273,-85.48822092,2.0,4.0,6.0,,6,0.0,1.0,1.0,,1,36696.0,94.708135525,47042.0,11.518966644865925
18071,Jackson,Indiana,38.90915820000001,-86.03851889,7.0,19.0,70.0,,74,0.0,0.0,0.0,,0,43637.0,86.496524863,48546.0,14.476247221394688
18073,Jasper,Indiana,41.02078733,-87.11553319,6.0,13.0,18.0,,19,1.0,1.0,1.0,,1,33461.0,59.629251929,55485.0,7.435521950927946
18075,Jay,Indiana,40.43781032,-85.00576229,3.0,4.0,,,7,0.0,0.0,,,0,21196.0,54.08625633,42322.0,15.649179090394414
18077,Jefferson,Indiana,38.78576239,-85.43633383,5.0,10.0,,,15,0.0,0.0,,,0,32482.0,89.309744389,47065.0,13.373560741333662
18079,Jennings,Indiana,38.99588883,-85.62710784,1.0,5.0,37.0,,60,0.0,0.0,0.0,,0,28023.0,73.318402382,47236.0,15.04835313849338
18081,Johnson,Indiana,39.48994426,-86.10149107,3.0,4.0,81.0,,347,0.0,1.0,3.0,,25,147567.0,487.52681429,63023.0,9.130090060785948
18083,Knox,Indiana,38.68861576,-87.4194665,4.0,9.0,,,16,0.0,0.0,,,0,37956.0,71.497797808,44624.0,13.120455263989882
18085,Kosciusko,Indiana,41.24521668,-85.86312322,5.0,12.0,19.0,,19,0.0,0.0,1.0,,1,78461.0,149.30122111,54482.0,10.735269751851238
18087,LaGrange,Indiana,41.64232188,-85.42674232,2.0,4.0,14.0,,14,0.0,0.0,1.0,,1,38395.0,103.60096436,53947.0,12.314103398880063
18089,Lake,Indiana,41.41874274,-87.38277575,7.0,31.0,335.0,,876,0.0,0.0,8.0,,33,489698.0,971.1109927,50905.0,17.338237035887424
18091,LaPorte,Indiana,41.54366008,-86.74072188,1.0,2.0,14.0,,42,0.0,0.0,1.0,,4,110993.0,183.87609697,48165.0,15.875775949834674
18093,Lawrence,Indiana,38.84112637,-86.48361629,5.0,12.0,68.0,,73,0.0,1.0,7.0,,9,45696.0,101.67002874,46044.0,12.629114145658264
18095,Madison,Indiana,40.16143691,-85.71964711,2.0,12.0,137.0,,273,0.0,1.0,11.0,,24,129862.0,286.86660077,44795.0,15.87685389105358
18097,Marion,Indiana,39.78163624,-86.13826325,1.0,6.0,226.0,,3204,0.0,0.0,6.0,,155,932142.0,2408.0840941,43369.0,20.1241870873751
18099,Marshall,Indiana,41.32467367,-86.26185087,3.0,4.0,17.0,,19,0.0,0.0,0.0,,0,46833.0,104.2514312,49725.0,11.42570409753806
18101,Martin,Indiana,38.7099921,-86.80373186,1.0,5.0,,,5,0.0,0.0,,,0,10218.0,30.429426575,47457.0,12.018007437854767
18103,Miami,Indiana,40.76940965,-86.04525048,1.0,3.0,14.0,,17,0.0,0.0,0.0,,0,36093.0,95.139058575,45646.0,15.005679771700883
18105,Monroe,Indiana,39.16130004,-86.52414358,1.0,16.0,54.0,,95,0.0,0.0,0.0,,2,143292.0,372.39252153,43389.0,22.362727856405105
18107,Montgomery,Indiana,40.04034823,-86.89335024,4.0,10.0,22.0,,25,0.0,0.0,0.0,,0,38108.0,75.985755252,50253.0,12.162800461845281
18109,Morgan,Indiana,39.47899078,-86.44573375,7.0,32.0,89.0,,105,0.0,1.0,3.0,,3,69504.0,173.62456435,57521.0,12.297133977900552
18111,Newton,Indiana,40.95610449,-87.39635768,1.0,4.0,,,29,0.0,0.0,,,2,14022.0,34.874515061,50058.0,13.072314933675653
18113,Noble,Indiana,41.39672484,-85.41966713,1.0,1.0,2.0,,25,0.0,0.0,0.0,,1,47587.0,115.69459788,49657.0,11.179523819530544
18115,Ohio,Indiana,38.955305,-84.96515993,1.0,1.0,1.0,,1,0.0,0.0,0.0,,0,6003.0,67.835366759,54653.0,6.61335998667333
18117,Orange,Indiana,38.54118920000001,-86.49523093,2.0,5.0,18.0,,19,0.0,1.0,3.0,,3,19579.0,48.920862219,41438.0,16.109096480923437
18119,Owen,Indiana,39.31145587,-86.83900724,1.0,7.0,17.0,,19,0.0,0.0,0.0,,1,21038.0,54.101284821,45388.0,14.611655100294705
18121,Parke,Indiana,39.77202286,-87.20375833,6.0,7.0,,,7,0.0,0.0,,,0,17033.0,38.062763089,42664.0,13.573651147771972
18123,Perry,Indiana,38.07809328,-86.63741946,3.0,,,,4,0.0,,,,0,19301.0,50.039424546,47396.0,13.268742552199368
18125,Pike,Indiana,38.40112197,-87.23574907,,,,,1,,,,,0,12554.0,37.1226483,48076.0,9.90919228931018
18127,Porter,Indiana,41.45986947,-87.06848888,9.0,35.0,118.0,,135,0.0,0.0,2.0,,2,167016.0,405.66041875,64874.0,10.513962734109306
18129,Posey,Indiana,38.02097333,-87.86480429,3.0,5.0,5.0,,6,0.0,0.0,0.0,,0,25527.0,62.388314922,59918.0,9.601598307674227
18131,Pulaski,Indiana,41.04166107,-86.69890683,1.0,,,,1,0.0,,,,0,12910.0,28.752578758,44884.0,13.24554608830364
18133,Putnam,Indiana,39.66437981,-86.84517605,2.0,7.0,31.0,,42,1.0,1.0,3.0,,3,37626.0,78.61824345,52465.0,8.765215542444055
18135,Randolph,Indiana,40.15734772,-85.01139319,3.0,5.0,,,11,0.0,1.0,,,1,25403.0,54.934001823,42418.0,17.00192890603472
18137,Ripley,Indiana,39.10235626,-85.26212744,11.0,31.0,79.0,,88,0.0,1.0,3.0,,3,28633.0,63.891953658,52372.0,9.897670520029337
18139,Rush,Indiana,39.62002287,-85.4655599,2.0,8.0,17.0,,17,0.0,1.0,1.0,,1,16873.0,40.828310763,46380.0,17.667279084928584
18141,St. Joseph,Indiana,41.61756781,-86.29040834,1.0,6.0,36.0,,273,0.0,0.0,1.0,,5,267696.0,591.35058602,46174.0,16.408911601219295
18143,Scott,Indiana,38.68672078,-85.74627859,1.0,1.0,12.0,,17,1.0,1.0,2.0,,2,23734.0,125.41161452,46368.0,13.765062779135418
18145,Shelby,Indiana,39.52305623,-85.79158570000001,1.0,12.0,56.0,,79,0.0,0.0,1.0,,3,44404.0,108.46394072,52651.0,12.264660841365643
18147,Spencer,Indiana,38.01519732,-87.0079644,1.0,2.0,,,4,0.0,0.0,,,0,20777.0,51.231481913,54870.0,9.688597968907928
18149,Starke,Indiana,41.27890281,-86.64686895,1.0,1.0,8.0,,10,0.0,0.0,0.0,,1,23069.0,74.18867535,43401.0,15.588018553036543
18151,Steuben,Indiana,41.64423868,-85.00101094,2.0,9.0,,,13,0.0,0.0,,,1,34279.0,112.00955716,50418.0,9.939029726654804
18153,Sullivan,Indiana,39.08952258,-87.41414469,1.0,3.0,6.0,,6,0.0,0.0,0.0,,0,21026.0,46.268520024,43786.0,15.528393417673357
18155,Switzerland,Indiana,38.82767338,-85.03022429,3.0,11.0,,,12,0.0,0.0,,,0,10484.0,48.567678307,43456.0,21.184662342617322
18157,Tippecanoe,Indiana,40.38872739,-86.89413959,2.0,11.0,36.0,,46,0.0,1.0,1.0,,2,183397.0,386.94176539,47406.0,19.909267872429755
18159,Tipton,Indiana,40.31123252,-86.05234925,2.0,4.0,9.0,,10,0.0,0.0,0.0,,0,15447.0,58.063837989,54023.0,8.597138602964977
18161,Union,Indiana,39.62550777,-84.92497066,5.0,9.0,,,6,0.0,0.0,,,0,7251.0,43.656504467,45104.0,9.391808026479106
18163,Vanderburgh,Indiana,38.02658833,-87.58763124,1.0,17.0,41.0,,65,0.0,0.0,1.0,,1,181692.0,774.48097802,43311.0,16.35184818263875
18165,Vermillion,Indiana,39.8523352,-87.46160542,2.0,3.0,,,4,0.0,0.0,,,0,15752.0,60.261401048,44409.0,13.185627221940072
18167,Vigo,Indiana,39.42944561,-87.39169027,2.0,4.0,25.0,,43,0.0,1.0,2.0,,3,108099.0,266.10305602,41221.0,18.550587887029483
18169,Wabash,Indiana,40.84704239,-85.79328272,1.0,1.0,7.0,,7,0.0,0.0,0.0,,0,32177.0,75.823999043,47473.0,11.93088230723809
18171,Warren,Indiana,40.34728141,-87.35602659,2.0,2.0,3.0,,3,0.0,1.0,1.0,,1,8309.0,22.657570309,58623.0,7.690456131905163
18173,Warrick,Indiana,38.08922676,-87.2716085,6.0,8.0,36.0,,41,0.0,0.0,2.0,,3,61427.0,162.59006421,61542.0,9.372100216517167
18175,Washington,Indiana,38.60219804,-86.1049363,3.0,6.0,23.0,,27,0.0,0.0,0.0,,0,27792.0,54.396529916,44883.0,14.7524467472654
18177,Wayne,Indiana,39.8633444,-85.01044989,1.0,1.0,13.0,,20,0.0,0.0,1.0,,1,67423.0,164.12425966,39691.0,19.137386351838394
18179,Wells,Indiana,40.72934187,-85.22132966,1.0,1.0,2.0,,4,0.0,0.0,0.0,,0,27836.0,76.628593783,51568.0,12.289840494323897
18181,White,Indiana,40.74911165,-86.86492015,2.0,3.0,,,5,0.0,0.0,,,0,24265.0,47.776099284,51547.0,9.79188131052957
18183,Whitley,Indiana,41.13863784,-85.50791236,3.0,8.0,,,14,0.0,1.0,,,1,33354.0,101.53712138,54837.0,8.62265395454818
19001,Adair,Iowa,41.33075609,-94.47105874,1.0,1.0,1.0,,1,0.0,0.0,0.0,,0,7330.0,12.407103378,48765.0,9.37244201909959
19003,Adams,Iowa,41.02903567,-94.69932645,,,,,0,,,,,0,3822.0,8.6082105115,48598.0,9.628466771323914
19005,Allamakee,Iowa,43.28383218,-91.37860922,3.0,7.0,16.0,,24,0.0,0.0,1.0,,2,14001.0,21.644840422,48089.0,9.913577601599886
19007,Appanoose,Iowa,40.74324454,-92.86865906,1.0,1.0,1.0,,1,0.0,0.0,1.0,,1,12602.0,25.009479372,40817.0,15.854626249801619
19009,Audubon,Iowa,41.6844628,-94.90581859,1.0,1.0,,,1,0.0,0.0,,,0,5793.0,12.429978653,47048.0,11.237700673226307
19011,Benton,Iowa,42.08011739,-92.06463573,4.0,7.0,20.0,,19,0.0,0.0,1.0,,1,25720.0,35.807734655,61222.0,9.035769828926906
19013,Black Hawk,Iowa,42.4704581,-92.30524729,3.0,7.0,12.0,,85,0.0,0.0,0.0,,0,132821.0,233.99015657,50348.0,14.760467094811814
19015,Boone,Iowa,42.03657094,-93.9313999,1.0,3.0,,,4,0.0,0.0,,,0,26411.0,46.095039488,54513.0,10.06777479080686
19017,Bremer,Iowa,42.77461496,-92.31795937,2.0,3.0,,,9,0.0,0.0,,,0,24663.0,57.286334672,64264.0,6.799659408831042
19019,Buchanan,Iowa,42.4709188,-91.83510825,2.0,3.0,7.0,,8,0.0,0.0,0.0,,0,21031.0,37.121003546,55881.0,9.058057153725454
19021,Buena Vista,Iowa,42.73545875,-95.15100162,2.0,,,,2,0.0,,,,0,20445.0,34.569542449,49942.0,12.594766446563952
19023,Butler,Iowa,42.73172833,-92.79015971,1.0,1.0,1.0,,1,0.0,0.0,0.0,,0,14933.0,25.061220102,52204.0,8.631889104667515
19025,Calhoun,Iowa,42.38521079,-94.64046046,,,,,0,,,,,0,9876.0,17.020384376,44635.0,13.81125961927906
19027,Carroll,Iowa,42.03617207,-94.86032705,1.0,1.0,1.0,,1,0.0,0.0,0.0,,0,20555.0,35.392850511,53785.0,9.238628071028947
19029,Cass,Iowa,41.33149454,-94.92792482,,,,,1,,,,,0,13433.0,22.915033723,45469.0,14.777041613935829
19031,Cedar,Iowa,41.77233777,-91.13246684,6.0,11.0,20.0,,22,0.0,0.0,0.0,,0,18389.0,32.145353326,60435.0,6.318995051389417
19033,Cerro Gordo,Iowa,43.08177563,-93.2612239,2.0,7.0,13.0,,14,0.0,0.0,0.0,,0,43303.0,75.04310361,47788.0,12.521072443017804
19035,Cherokee,Iowa,42.73538914,-95.62389402,,,,,0,,,,,0,11752.0,19.623627119,51590.0,11.240639891082369
